{"lat": "lat", "long": "long", "postcode": "postcode", "name": "name", "address": "address"},
{"lat": "-37.70326", "long": "145.094404", "postcode": "3088", "name": "ABACUS CHILD CARE CENTRE", "address": "3, William Street, Apollo Parkways, Greensborough"},
{"lat": "-37.802389", "long": "144.980228", "postcode": "3065", "name": "ACACIA FITZROY CRECHE", "address": "187 Napier Street"},
{"lat": "-37.794954", "long": "145.150708", "postcode": "3109", "name": "ACE CHILD CARE CENTRE", "address": "Renshaw Street, East Doncaster Junction, Doncaster East"},
{"lat": "-37.934598", "long": "145.149261", "postcode": "3171", "name": "ACTIVE LEARNING CHILD CARE CENTRE", "address": "Clive Street, Springvale"},
{"lat": "-37.721026", "long": "144.883868", "postcode": "3043", "name": "AIRPORT DAY NURSERY", "address": "McIntosh Street, Airport West"},
{"lat": "-37.728306", "long": "144.880287", "postcode": "3043", "name": "AIRPORT WEST CHILD CARE CO-OPERATIVE", "address": "Clydesdale Road, Airport West"},
{"lat": "-37.19355", "long": "145.707799", "postcode": "3714", "name": "ALEXANDRA BABY CARE", "address": "Coster Street, Alexandra, Shire of Murrindindi"},
{"lat": "-37.846749", "long": "144.981264", "postcode": "3004", "name": "ALFRED CHILD CARE CENTRE", "address": "Alfred Hospital, Alfred Lane, Prahran"},
{"lat": "-37.546281", "long": "143.794812", "postcode": "3358", "name": "ALFREDTON CHILD CARE CENTRE", "address": "Elaine Avenue, Alfredton, Ballarat"},
{"lat": "-37.873035", "long": "144.782677", "postcode": "3028", "name": "ALTONA MEADOWS CHILD CARE CENTRE", "address": "Queen Street, Altona Meadows"},
{"lat": "-37.868108", "long": "144.779573", "postcode": "3028", "name": "ALTONA MEADOWS OSHC", "address": "Nicholson Street, Altona Meadows"},
{"lat": "-37.842652", "long": "144.84983", "postcode": "3025", "name": "ALTONA NORTH CHILD CARE CENTRE", "address": "Ronald Avenue, Altona North"},
{"lat": "-37.878221", "long": "145.284515", "postcode": "3156", "name": "AMAROO CHILD CARE CENTRE", "address": "59, Dorset Road, Ferntree Gully"},
{"lat": "-38.001623", "long": "145.304902", "postcode": "3805", "name": "ANACONDA CHILD CARE CENTRE", "address": "102, Anaconda Road, Fountain Gate, Narre Warren, Harkaway"},
{"lat": "-37.78292", "long": "144.827522", "postcode": "3020", "name": "ANDERSON ROAD CHILD CARE CENTRE", "address": "145, Anderson Road, Sunshine"},
{"lat": "-36.391448", "long": "145.359412", "postcode": "3629", "name": "ANN STREET CHILD CARE CENTRE", "address": "Ann Street, Mooroopna"},
{"lat": "-36.76605", "long": "144.284024", "postcode": "3550", "name": "ANNIE GALVIN CHILD CARE CENTRE", "address": "Gladstone Street, Quarry Hill, Bendigo"},
{"lat": "-38.231048", "long": "145.170662", "postcode": "3912", "name": "ANNIE SAGE CHILD CARE", "address": "Blacks Camp Road, Somerville"},
{"lat": "-37.754894", "long": "144.970249", "postcode": "3058", "name": "ANTONINE SISTERS CHILD CARE CENTRE", "address": "Barrow Street, Coburg"},
{"lat": "-37.754171", "long": "144.908587", "postcode": "3040", "name": "ANTRIM DAY NURSERY", "address": "Lincoln Road, Essendon"},
{"lat": "-37.825083", "long": "145.117787", "postcode": "3128", "name": "AQUALINK BOX HILL CRECHE", "address": "Surrey Drive, Box Hill"},
{"lat": "-37.837541", "long": "145.174422", "postcode": "3131", "name": "AQUALINK NUNAWADING CRECHE", "address": "Fraser Place, Forest Hill"},
{"lat": "-37.774289", "long": "145.126265", "postcode": "3107", "name": "AQUARENA CHILD CARE", "address": "Williamsons Road, Macedon Square, Doncaster"},
{"lat": "-38.373924", "long": "142.487696", "postcode": "3280", "name": "AQUAZONE CRECHE", "address": "Queens Road, Warrnambool"},
{"lat": "-37.276142", "long": "142.932061", "postcode": "3377", "name": "ARARAT CHILD CARE CENTRE", "address": "McNeill Street, Ararat"},
{"lat": "-37.803484", "long": "145.050964", "postcode": "3102", "name": "ARGYLE ROAD CHILD CARE CENTRE", "address": "Argyle Road, Willsmere, Kew"},
{"lat": "-37.85661", "long": "145.027787", "postcode": "3143", "name": "ARMADALE CRECHE", "address": "1208, High Street, Armadale"},
{"lat": "-37.831319", "long": "145.293718", "postcode": "3155", "name": "ARRABRI PLAYGROUP", "address": "Allambanan Drive, Bayswater North"},
{"lat": "-37.661115", "long": "144.883972", "postcode": "3049", "name": "ATTWOOD CHILD CARE CENTRE AND KINDERGARTEN", "address": "Mickleham Road, Attwood"},
{"lat": "-37.821567", "long": "145.046376", "postcode": "3122", "name": "AUBURN KINDERGARTEN & CHILD CARE CENTRE", "address": "Station Street, Hawthorn East"},
{"lat": "-37.757305", "long": "145.059862", "postcode": "3084", "name": "AUSTIN CHILD CARE CENTRE", "address": "Austin Hospital, Bell - Banksia Link, Heidelberg"},
{"lat": "-37.665145", "long": "144.436135", "postcode": "3340", "name": "BACCHUS MARSH CHILD CARE & KINDERGARTEN CENTRE", "address": "6, Clifton Drive, Bacchus Marsh"},
{"lat": "-37.684437", "long": "144.432303", "postcode": "3340", "name": "BACCHUS MARSH LEISURE CENTRE CRECHE", "address": "Griffith Street, Maddingley, Bacchus Marsh"},
{"lat": "-36.368129", "long": "145.414667", "postcode": "3629", "name": "BALACLAVA ROAD CHILD CARE CENTRE", "address": "2, Verney Road, Shepparton"},
{"lat": "-37.54059", "long": "143.859973", "postcode": "3358", "name": "BALLARAT CHILD CARE CO-OP", "address": "1007, Armstrong Street North, Soldiers Hill, Ballarat"},
{"lat": "-37.558283", "long": "143.857262", "postcode": "3358", "name": "BALLARAT CITY OCCASIONAL CHILD CARE CENTRE", "address": "Market Street, Ballarat Central, Ballarat"},
{"lat": "-37.249418", "long": "141.841182", "postcode": "3407", "name": "BALMORAL CHILD CARE", "address": "Bell Street, Balmoral"},
{"lat": "-37.722285", "long": "145.070553", "postcode": "3087", "name": "BANYULE NETBALL STADIUM CHILD CARE CENTRE", "address": "Somers Avenue, Macleod"},
{"lat": "-36.371652", "long": "146.695479", "postcode": "3747", "name": "BEECHWORTH COMMUNITY CHILD CARE CENTRE", "address": "Kurrajong Way, Beechworth"},
{"lat": "-37.686281", "long": "144.738243", "postcode": "3037", "name": "BELLEVUE PLAZA PLAY AND LEARN CHILD CARE CENTRE", "address": "Wattle Valley Drive, Bellevue Hill, Hillside"},
{"lat": "-36.754802", "long": "144.281983", "postcode": "3550", "name": "BENDIGO CRECHE & DAY NURSERY", "address": "Park Road, Bendigo, City of Greater Bendigo"},
{"lat": "-36.765726", "long": "144.284252", "postcode": "3550", "name": "BENDIGO OCCASIONAL CHILD CARE CENTRE", "address": "Gladstone Street, Quarry Hill, Bendigo"},
{"lat": "-37.922534", "long": "145.039269", "postcode": "3204", "name": "BENTLEIGH FAMILY & CHILD CARE CO-OP", "address": "Brewer Road, Bentleigh"},
{"lat": "-38.246797", "long": "145.048712", "postcode": "3934", "name": "BENTONS SQUARE OCCASIONAL CHILD CARE AND PRESCHOOL", "address": "Bentons Road, Mount Martha, Mornington"},
{"lat": "-38.246797", "long": "145.048712", "postcode": "3934", "name": "BENTONS SQUARE VACATION CARE", "address": "Bentons Road, Mount Martha, Mornington"},
{"lat": "-36.131369", "long": "144.750656", "postcode": "3564", "name": "BERRIMBA CHILD CARE", "address": "Hare Street, Echuca"},
{"lat": "-36.345376", "long": "146.297559", "postcode": "3677", "name": "BILLY LIDS CHILD CARE CENTRE", "address": "Peacock Place, Wangaratta"},
{"lat": "-37.756357", "long": "144.970737", "postcode": "3058", "name": "BINDI CHILD CARE & KINDERGARTEN", "address": "Barrow Street, Moreland Road, Coburg"},
{"lat": "-37.862647", "long": "145.233067", "postcode": "3152", "name": "BIRCHFIELD CRESCENT CHILD CARE CENTRE", "address": "39, Birchfield Crescent, Wantirna"},
{"lat": "-38.43131", "long": "145.821087", "postcode": "3950", "name": "BIRRALEE CHILD CARE CENTRE", "address": "Broughton Place, Korumburra"},
{"lat": "-37.860371", "long": "145.283752", "postcode": "3155", "name": "BORONIA BUSY BODIES CRECHE", "address": "Orchid Avenue, Boronia"},
{"lat": "-37.805692", "long": "145.13334", "postcode": "3129", "name": "BOX HILL EARLY LEARNING CHILD CARE CENTRE & KINDERGARTEN", "address": "Dorking Road, Kerrimuir, Box Hill North"},
{"lat": "-37.92074", "long": "145.087358", "postcode": "3167", "name": "BRIGHT BEGINNINGS CHILD CARE CENTRE", "address": "117-119, Golf Road, Oakleigh South"},
{"lat": "-37.929516", "long": "144.993598", "postcode": "3187", "name": "BRIGHTON BEACH CHILD CARE CENTRE", "address": "New Street, Hampton"},
{"lat": "-37.907584", "long": "145.076973", "postcode": "3166", "name": "BRINE STREET CHILD CARE CENTRE", "address": "Brine Street, Hughesdale"},
{"lat": "-37.772248", "long": "144.966181", "postcode": "3056", "name": "BRUNSWICK CRECHE & DAY NURSERY", "address": "82, Glenlyon Road, Brunswick"},
{"lat": "-38.245712", "long": "142.919332", "postcode": "3264", "name": "BUCKLE MY SHOE", "address": "McKinnon Street, Terang"},
{"lat": "-37.759171", "long": "145.093991", "postcode": "3105", "name": "BULLEEN TEMPLESTOWE BASKETBALL CLUB INC CRECHE", "address": "Almerta Place, Bulleen"},
{"lat": "-38.050072", "long": "145.12289", "postcode": "3196", "name": "BUNNYKINS CHILD CARE CENTRE", "address": "Blantyre Avenue, Chelsea"},
{"lat": "-37.876136", "long": "145.108365", "postcode": "3148", "name": "BURTON STREET (CENTRE 2)", "address": "Burton Street, Jordanville, Chadstone"},
{"lat": "-37.779329", "long": "145.325538", "postcode": "3140", "name": "BUSY KIDS CHILD CARE CENTRE", "address": "Croydondale Drive, Rolling Hills, Mooroolbark, Lilydale"},
{"lat": "-37.759031", "long": "144.788902", "postcode": "3021", "name": "CAIRNLEA KINDY AND CHILD CARE CENTRE", "address": "Wattle Grove Road, Cairnlea"},
{"lat": "-37.833", "long": "145.06373", "postcode": "3124", "name": "CAMBERWELL KINDERGARTEN AND CHILD CARE CENTRE", "address": "25, Trafalgar Road, Camberwell"},
{"lat": "-37.996689", "long": "145.207775", "postcode": "3175", "name": "CANBERRA AVENUE CHILD CARE CENTRE", "address": "Canberra Avenue, Dandenong"},
{"lat": "-38.123227", "long": "145.148738", "postcode": "3198", "name": "CANDLEBARK CHILD CARE CENTRE", "address": "Candlebark Crescent, Frankston North, Frankston"},
{"lat": "-37.821084", "long": "145.070087", "postcode": "3124", "name": "CANTERBURY CHILD CARE CENTRE", "address": "Gwenda Avenue, Canterbury"},
{"lat": "-38.086383", "long": "145.289371", "postcode": "3977", "name": "CARLISLE CHILD CARE CLUB", "address": "15, Silky Oak Drive, Cranbourne"},
{"lat": "-38.076314", "long": "145.13085", "postcode": "3197", "name": "CARRUM CHILD CARE CENTRE", "address": "Seaford Wetlands Path, Carrum"},
{"lat": "-38.1134", "long": "145.297057", "postcode": "3977", "name": "CASEY RECREATION AND AQUATIC CENTRE CRECHE", "address": "Cranbourne East, Cranbourne"},
{"lat": "-37.06289", "long": "144.215617", "postcode": "3450", "name": "CASTLEMAINE CHILD CARE CENTRE", "address": "Templeton Street, Castlemaine"},
{"lat": "-37.866419", "long": "145.050204", "postcode": "3146", "name": "CENTRAL PARK CHILD CARE CENTRE", "address": "120, Burke Road, Malvern East"},
{"lat": "-38.369167", "long": "145.207623", "postcode": "3919", "name": "CERBERUS CHILD CARE CENTRE", "address": "Cook Road, HMAS Cerberus, Stony Point"},
{"lat": "-37.880888", "long": "145.028868", "postcode": "3161", "name": "CHABAD GLEN EIRA CRECHE", "address": "Glen Eira Road, Caulfield"},
{"lat": "-37.852331", "long": "145.029634", "postcode": "3144", "name": "CHABAD HOUSE OF MALVERN/TOORAK", "address": "355, Glenferrie Road, Malvern"},
{"lat": "-37.87663", "long": "145.221414", "postcode": "3152", "name": "CHARLIE BROWN CHILD CARE CENTRE", "address": "1305, High Street Road, Wantirna South"},
{"lat": "-37.878406", "long": "145.00881", "postcode": "3185", "name": "CHAYAS CRECHE", "address": "Somerset Street, Elsternwick"},
{"lat": "-38.05376", "long": "145.121372", "postcode": "3196", "name": "CHELSEA CENTRAL CHILD CARE CENTRE", "address": "Woodbine Grove, Chelsea"},
{"lat": "-38.030073", "long": "145.360758", "postcode": "3805", "name": "CHILDRENS DOMAIN CHILD CARE & EARLY LEARNING CENTRE", "address": " Howell Drive, Berwick, Harkaway"},
{"lat": "-37.832137", "long": "145.223818", "postcode": "3135", "name": "CHOKLITS CHILD CARE CENTRE", "address": "Canterbury Road, Ringwood"},
{"lat": "-38.023785", "long": "145.306467", "postcode": "3805", "name": "CITY OF CASEY CHILD CARE COMPLEX", "address": "Webb Street, Fountain Gate, Narre Warren, Harkaway"},
{"lat": "-38.104598", "long": "145.27611", "postcode": "3977", "name": "CLARENDON STREET COMMUNITY CHILD CARE CENTRE", "address": "Dunbar Avenue, Cranbourne"},
{"lat": "-37.933502", "long": "145.13122", "postcode": "3169", "name": "CLAYTON SOUTH CHILD CARE CENTRE", "address": "Milton Avenue, Clayton South"},
{"lat": "-37.782272", "long": "144.990478", "postcode": "3068", "name": "CLIFTON CHILD CARE CO-OP", "address": "Rushall Crescent, Fitzroy North"},
{"lat": "-37.301959", "long": "143.782868", "postcode": "3370", "name": "CLUNES NEIGHBOURHOOD HOUSE CRECHE", "address": "Ballarat - Maryborough Road, Clunes"},
{"lat": "-37.74028", "long": "144.945745", "postcode": "3044", "name": "COBURG & PASCOE VALE SOUTH CHILD CARE CENTRE", "address": "211, Melville Road, Pascoe Vale South"},
{"lat": "-37.697923", "long": "144.565868", "postcode": "3337", "name": "COBURNS ROAD CHILD CARE CENTRE", "address": "Coburns Road, Melton South"},
{"lat": "-37.913862", "long": "145.184818", "postcode": "3150", "name": "COLUMBIA PARK CHILD CARE CENTRE", "address": "6, Columbia Drive, Wheelers Hill"},
{"lat": "-37.751137", "long": "145.365873", "postcode": "3140", "name": "COMO PARK CHILD CARE & KINDERGARTEN", "address": "Nelson Road, Lilydale"},
{"lat": "-37.811439", "long": "145.000263", "postcode": "3121", "name": "COOKE COURT CHILD CARE CENTRE", "address": "23, Church Street, Richmond"},
{"lat": "-38.131572", "long": "145.125284", "postcode": "3198", "name": "CORE HEALTH CHILD CARE", "address": "Nepean Highway, Frankston"},
{"lat": "-38.078373", "long": "144.354718", "postcode": "3214", "name": "CORIO BAY SENIOR COLLEGE CHILD CARE CENTRE INC", "address": "Illinois Avenue, Corio, Geelong"},
{"lat": "-37.598864", "long": "144.934478", "postcode": "3064", "name": "CRAIGIEBURN LEISURE CENTRE CRECHE", "address": "Craigieburn Road, Craigieburn"},
{"lat": "-38.155709", "long": "145.173607", "postcode": "3198", "name": "CRICKLEWOOD CHILD CARE CENTRE", "address": "Cranbourne Road, Langwarrin, Frankston"},
{"lat": "-37.876077", "long": "145.150062", "postcode": "3150", "name": "CROXLEY HALL NURSERY & PRESCHOOL", "address": "37-39, Hunter Street, Syndal, Glen Waverley"},
{"lat": "-37.756677", "long": "145.124776", "postcode": "3106", "name": "CUDDLY BEAR CHILD CARE", "address": "Swilk Street, Templestowe"},
{"lat": "-37.832632", "long": "145.23459", "postcode": "3135", "name": "CUDDLY BEAR CHILD CARE HEATHMONT", "address": "Canterbury Road, Heathmont"},
{"lat": "-37.967971", "long": "145.212342", "postcode": "3175", "name": "DANDENONG DAY NURSERY", "address": "Brunet Street, Dandenong North, Dandenong"},
{"lat": "-37.912908", "long": "145.326859", "postcode": "3160", "name": "DANDENONG RANGES CHILD CARE CENTRE", "address": "Riley Road, Upwey, Belgrave"},
{"lat": "-37.70534", "long": "144.970685", "postcode": "3060", "name": "DARUL ULUM COLLEGE CHILD CARE", "address": "Baird Street, Fawkner"},
{"lat": "-37.771207", "long": "144.957094", "postcode": "3056", "name": "DAWSON STREET CHILD CARE CENTRE", "address": "Dawson Street, Brunswick"},
{"lat": "-37.34237", "long": "144.138009", "postcode": "3370", "name": "DAYLESFORD COMMUNITY CHILD CARE", "address": "Western Avenue, Daylesford"},
{"lat": "-37.34237", "long": "144.138009", "postcode": "3370", "name": "DAYLESFORD COMMUNITY CHILD CARE CENTRE", "address": "Western Avenue, Daylesford"},
{"lat": "-38.200536", "long": "144.30157", "postcode": "3214", "name": "DEAKIN CHILD CARE", "address": "Deakin Avenue, Waurn Ponds, Geelong"},
{"lat": "-37.760722", "long": "145.167267", "postcode": "3109", "name": "DEEP CREEK CHILD CARE CENTRE", "address": "Blackburn Road, Deep Creek, Doncaster East"},
{"lat": "-37.674691", "long": "145.161669", "postcode": "3089", "name": "DIAMOND CREEK CHILD CARE CENTRE", "address": "10, Main Hurstbridge Road, Diamond Creek"},
{"lat": "-37.781857", "long": "145.132242", "postcode": "3107", "name": "DONCASTER EARLY LEARNING CHILD CARE", "address": "Turana Street, Doncaster Hill, Doncaster"},
{"lat": "-37.681269", "long": "145.015682", "postcode": "3074", "name": "DOROTHY AVENUE CHILD CARE CENTRE", "address": "Dorothy Avenue, Thomastown"},
{"lat": "-37.990818", "long": "145.241155", "postcode": "3177", "name": "DOVETON UNITING CHURCH CHILD CARE AND KINDERGARTEN", "address": "10-12, Ti Tree Drive, Doveton"},
{"lat": "-38.328561", "long": "144.974951", "postcode": "3936", "name": "DROMANA CHILD CARE", "address": "Nepean Highway, Safety Beach, Arthurs Seat"},
{"lat": "-37.801464", "long": "145.322406", "postcode": "3765", "name": "DURHAM ROAD DAY CHILD CARE CENTRE", "address": "Hansen Road, Kilsyth, Montrose"},
{"lat": "-37.679231", "long": "144.568704", "postcode": "3337", "name": "EARLY LEARNING CHILD CARE CENTRE", "address": "Coburns Road, Melton West"},
{"lat": "-37.6820723", "long": "144.5848333", "postcode": "3337", "name": "EARLY LEARNING KINDERS AND CHILD CARE", "address": "Wallace Square, Melton"},
{"lat": "-37.9287303", "long": "145.0579974", "postcode": "3189", "name": "EAST BENTLEIGH CHILD CARE CENTRE", "address": "East Boundary Road, Bentleigh East"},
{"lat": "-38.10598", "long": "147.124957", "postcode": "3852", "name": "EAST SALE CHILD CARE CENTRE", "address": "Aerodrome Road, East Sale, The Heart"},
{"lat": "-37.804667", "long": "144.981057", "postcode": "3065", "name": "EAST WEST CHILD CARE", "address": "144-156, George Street, Fitzroy"},
{"lat": "-38.029653", "long": "145.275714", "postcode": "3976", "name": "ECO KIDS CHILD CARE CENTRE", "address": "Pound Road, Hampton Park"},
{"lat": "-38.039975", "long": "145.359502", "postcode": "3805", "name": "EDRINGTON PARK CHILD CARE & KINDERGARTEN", "address": "Edrington Park Drive, Berwick, Harkaway"},
{"lat": "-37.67297", "long": "144.576249", "postcode": "3337", "name": "EDUKIDS LEARNING CHILD CARE AND KINDERGARTEN", "address": "Greenhills Drive, Kurunjang"},
{"lat": "-37.862785", "long": "144.976369", "postcode": "3182", "name": "EILDON RD CHILD CARE CENTRE", "address": "Eildon Road, St Kilda"},
{"lat": "-38.00175", "long": "145.098096", "postcode": "3195", "name": "ELITE PETITES", "address": "5, Hall Mark Road, Mordialloc"},
{"lat": "-37.882366", "long": "145.015469", "postcode": "3185", "name": "ELSTERNWICK CHILD CARE CENTRE", "address": "Allison Road, Elsternwick"},
{"lat": "-37.716053", "long": "145.145632", "postcode": "3095", "name": "ELTHAM CHILD CARE CO-OP LTD", "address": "Eltham Library, Library Place, Eltham South, Eltham"},
{"lat": "-37.722592", "long": "145.141162", "postcode": "3095", "name": "ELTHAM LEISURE CENTRE CRECHE", "address": "11, Susan Street, Eltham South, Eltham"},
{"lat": "-37.689827", "long": "145.142633", "postcode": "3095", "name": "ELTHAM NORTH CHILD CARE", "address": "Ryans Road, Eltham North"},
{"lat": "-37.707901", "long": "145.167332", "postcode": "3095", "name": "ELTHAM WOODS CHILD CARE CENTRE CO-OP", "address": "Eltham Woods, Frank Street, Woodridge, Eltham, Kangaroo Ground"},
{"lat": "-37.83291", "long": "144.961665", "postcode": "3205", "name": "EMERALD HILL CHILD CARE CENTRE", "address": "Dorcas Street, South Melbourne"},
{"lat": "-37.97843", "long": "145.258517", "postcode": "3177", "name": "ENDEAVOUR HILLS LEISURE CENTRE (CRECHE)", "address": "Raymond McMahon Boulevard, Endeavour Hills"},
{"lat": "-37.978798", "long": "145.263665", "postcode": "3177", "name": "ENDEAVOUR HILLS UNITING CHURCH CHILD CARE CENTRE", "address": "Hellyer Way, Endeavour Hills"},
{"lat": "-38.223699", "long": "145.183675", "postcode": "3912", "name": "ERAMOSA CHILD CARE", "address": "Eramosa Road East, Somerville"},
{"lat": "-37.82421", "long": "144.956109", "postcode": "3005", "name": "EVENT CHILD CARE", "address": "Clarendon Street, South Wharf"},
{"lat": "-36.863945", "long": "147.282037", "postcode": "3699", "name": "FALLS CREEK OCCASIONAL CHILD CARE", "address": "Falls Creek Resort, Slalom Street, Falls Creek"},
{"lat": "-37.791194", "long": "144.935804", "postcode": "3000", "name": "FEDERATION FAMILY DAY CARE", "address": "51, Stubbs Street, Kensington"},
{"lat": "-38.172204", "long": "144.384573", "postcode": "3214", "name": "FIRST STEPS CHILD CARE CENTRE", "address": "Regent Street, Whittington, Geelong"},
{"lat": "-37.786316", "long": "144.931537", "postcode": "3000", "name": "FLEMINGTON CHILD CARE CO-OPERATIVE", "address": "2A, Wellington Street, Kensington"},
{"lat": "-37.95909", "long": "145.065626", "postcode": "3192", "name": "FRIENDSHIP SQUARE CHILD CARE CENTRE", "address": "Friendship Square, Cheltenham"},
{"lat": "-37.747308", "long": "144.779163", "postcode": "3021", "name": "FUTURE KIDS CHILD CARE -CAIRNLEA", "address": "Station Road Service Road, Cairnlea"},
{"lat": "-38.109405", "long": "145.255314", "postcode": "3977", "name": "FUTURE KIDS CHILD CARE -CRANBOURNE CENTRAL", "address": "Navarre Drive, Cranbourne West, Cranbourne"},
{"lat": "-38.095382", "long": "145.293889", "postcode": "3977", "name": "FUTURE KIDS CHILD CARE -CRANBOURNE EAST", "address": "Tilbury Court, Cranbourne East, Cranbourne"},
{"lat": "-37.873263", "long": "144.613127", "postcode": "3024", "name": "FUTURE KIDS CHILD CARE -MANOR LAKES", "address": "Ballan Road, Wyndham Vale"},
{"lat": "-38.072736", "long": "145.476358", "postcode": "3810", "name": "FUTURE KIDS CHILD CARE -PAKENHAM", "address": "Main Street, Pakenham"},
{"lat": "-37.900346", "long": "144.740279", "postcode": "3030", "name": "FUTURE KIDS CHILD CARE -POINT COOK", "address": "Paradise Parade, Alamanda, Point Cook"},
{"lat": "-37.8542", "long": "144.741647", "postcode": "3027", "name": "FUTURE KIDS CHILD CARE CENTRE -WYNDHAM WATERS", "address": "Bronzewing Street, Wyndham Waters, Williams Landing"},
{"lat": "-37.822438", "long": "144.954337", "postcode": "3005", "name": "FUTURE KIDS CHILD CARE-WORLD TRADE CENTRE", "address": "Siddeley Street, Docklands"},
{"lat": "-38.197916", "long": "144.341623", "postcode": "3214", "name": "GEELONG CHILDRENS SERVICES CHILD CARE & EDUCATION CENTRE", "address": "Torquay Road, Grovedale, Geelong"},
{"lat": "-38.140157", "long": "144.325244", "postcode": "3214", "name": "GEELONG KIDS CHILD CARE AND KINDERGARTEN", "address": "335, Autumn Street, Herne Hill, Geelong"},
{"lat": "-37.868576", "long": "145.261448", "postcode": "3155", "name": "GENESIS CRECHE WANTIRNA", "address": "Scoresby Road, Boronia"},
{"lat": "-37.701158", "long": "144.564177", "postcode": "3337", "name": "GENESIS KIDS ZONE", "address": "Brooklyn Road, Brookfield"},
{"lat": "-37.882013", "long": "145.162828", "postcode": "3150", "name": "GLEN WAVERLEY OCCASIONAL CHILD CARE", "address": "Bogong Avenue, Syndal, Glen Waverley"},
{"lat": "-37.796912", "long": "144.989712", "postcode": "3066", "name": "GOLD STREET CHILD CARE CENTRE", "address": "64, Gold Street, Collingwood"},
{"lat": "-37.731856", "long": "142.031183", "postcode": "3407", "name": "GOOD SHEPHERD CHILD CARE CENTRE", "address": "33, McArthur Street, Hamilton, Shire of Southern Grampians"},
{"lat": "-37.81103", "long": "145.068224", "postcode": "3103", "name": "GOODLIFE OPERATIONS CHILD CARE CENTRE -BALWYN", "address": "Whitehorse Road, Deepdene"},
{"lat": "-37.732581", "long": "144.813033", "postcode": "3021", "name": "GRACE STREET CHILD CARE CENTRE", "address": "Grace Street, St Albans"},
{"lat": "-38.11756", "long": "145.149578", "postcode": "3198", "name": "GREEN COTTAGE CHILD CARE", "address": "Madden Street, Frankston North, Frankston"},
{"lat": "-37.780763", "long": "145.033996", "postcode": "3079", "name": "GUM NUT PRESCHOOL & CHILD CARE", "address": "Como Street, Alphington"},
{"lat": "-36.548116", "long": "145.984997", "postcode": "3672", "name": "GUM NUTS RESORT", "address": "Carrier Street, Benalla"},
{"lat": "-38.234691", "long": "146.395853", "postcode": "3840", "name": "GUNAI LIDJ CHILD CARE CENTRE", "address": "24, Buckley Street, Morwell, Latrobe City"},
{"lat": "-36.398571", "long": "145.39019", "postcode": "3629", "name": "GUTHRIE STREET CHILD CARE CENTRE", "address": "Guthrie Street, Shepparton"},
{"lat": "-37.937", "long": "145.023652", "postcode": "3188", "name": "HAMPTON CHILD CARE CENTRE", "address": "Bluff Road, Hampton East"},
{"lat": "-37.940577", "long": "145.002156", "postcode": "3187", "name": "HAMPTON LADIES HEALTH CLUB CHILD CARE CENTRE", "address": "Crisp Street, Hampton"},
{"lat": "-37.65698", "long": "145.074832", "postcode": "3082", "name": "HAPPY FACES CHILD CARE CENTRE", "address": "Centenary Drive, Mill Park"},
{"lat": "-37.960758", "long": "145.206746", "postcode": "3175", "name": "HAPPY KIDS CHILD CARE CENTRE", "address": "158, Gladstone Road, Dandenong North, Dandenong"},
{"lat": "-38.100928", "long": "145.28093", "postcode": "3977", "name": "HAPPY LITTLE LEARNERS CHILD CARE CENTRE", "address": "Station Street, Cranbourne"},
{"lat": "-37.847784", "long": "145.082886", "postcode": "3124", "name": "HARTWELL CHILD CARE ASSOC", "address": "Milverton Street, Camberwell"},
{"lat": "-38.30844", "long": "145.192267", "postcode": "3915", "name": "HASTINGS CHILD CARE CENTRE", "address": "King Street, Hastings"},
{"lat": "-37.821337", "long": "145.042426", "postcode": "3122", "name": "HAWTHORN COMMUNITY HOUSE CHILD CARE SERVICE", "address": "Henry Street, Hawthorn"},
{"lat": "-37.836245", "long": "145.241754", "postcode": "3135", "name": "HEATHMONT CHILD CARE CENTRE", "address": "Eden Avenue, Heathmont"},
{"lat": "-37.828274", "long": "145.256566", "postcode": "3135", "name": "HEATHMONT EAST CHILD CARE CENTRE", "address": "Armstrong Road, Heathmont"},
{"lat": "-37.747772", "long": "145.056914", "postcode": "3081", "name": "HEIDELBERG OCCASIONAL CHILD CARE CENTRE", "address": "Altona Street, Heidelberg Heights"},
{"lat": "-37.797311", "long": "145.289992", "postcode": "3136", "name": "HEWISH ROAD CHILD CARE CENTRE", "address": "Hewish Road, Croydon"},
{"lat": "-37.961278", "long": "145.137821", "postcode": "3172", "name": "HIGH FLYERS CHILD CARE CENTRE", "address": "Clarke Road, Springvale South"},
{"lat": "-38.188658", "long": "144.326999", "postcode": "3214", "name": "HIGHTON CHILD CARE & DEVELOPMENT CENTRE PTY LTD", "address": "Reynolds Road, Belmont, Geelong"},
{"lat": "-37.739729", "long": "144.892153", "postcode": "3040", "name": "HONEYBEE CHILD CARE CENTRE", "address": "Hoffmans Road, Niddrie"},
{"lat": "-35.730103", "long": "142.363095", "postcode": "3396", "name": "HOPETOUN CHILD CARE SERVICE", "address": "Mandeville Street, Hopetoun"},
{"lat": "-37.878008", "long": "144.691034", "postcode": "3030", "name": "HOPPERS CROSSING OCCASIONAL CHILD CARE CENTRE", "address": "Heaths Road, Hoppers Crossing, Werribee"},
{"lat": "-36.714478", "long": "142.20362", "postcode": "3400", "name": "HORSHAM COMMUNITY CHILD CARE CENTRE", "address": "Roberts Avenue, Horsham"},
{"lat": "-36.715252", "long": "142.202928", "postcode": "3400", "name": "HORSHAM UNITING CHURCH CRECHE", "address": "Pynsent Street, Horsham"},
{"lat": "-37.771179", "long": "144.77892", "postcode": "3023", "name": "HUNT CLUB COMMUNITY ARTS CENTRE -OCCASIONAL CHILD CARE", "address": "Hume Street, Deer Park"},
{"lat": "-37.895937", "long": "144.999434", "postcode": "3185", "name": "HUNT COMMUNITY CHILD CARE CENTRE", "address": "Cochrane Street, Brighton"},
{"lat": "-37.896131", "long": "144.622784", "postcode": "3030", "name": "IRAMOO COMMUNITY CENTRE OCCASIONAL CHILD CARE", "address": "Honour Avenue, Windermere, Wyndham Vale, Werribee"},
{"lat": "-37.685257", "long": "144.934621", "postcode": "3047", "name": "ISIK COLLEGE CHILD CARE CENTRE AND KINDERGARTEN", "address": "ISIK College, Cuthbert Street, Broadmeadows"},
{"lat": "-37.762214", "long": "145.042884", "postcode": "3079", "name": "IVANHOE AQUATIC CENTRE CHILD CARE", "address": "Bond Street, Ivanhoe"},
{"lat": "-37.970311", "long": "145.202643", "postcode": "3175", "name": "JELLY BEAN CHILD CARE CENTRE", "address": "Florence Court, Dandenong"},
{"lat": "-37.77574", "long": "144.8317", "postcode": "3020", "name": "JIGSAW CHILD CARE", "address": "Phoenix Street, Sunshine North"},
{"lat": "-37.880432", "long": "145.271573", "postcode": "3156", "name": "JOHNSON AND FRIENDS CHILD CARE CENTRE", "address": "Burwood Highway, Ferntree Gully"},
{"lat": "-37.894681", "long": "145.151899", "postcode": "3150", "name": "JOLLY JUMBUCKS CHILD CARE", "address": "28-30, Chivers Avenue, Glen Waverley"},
{"lat": "-37.93189", "long": "145.438481", "postcode": "3782", "name": "JOLLY JUMBUCKS CHILD CARE EMERALD", "address": "267 - 271, Belgrave - Gembrook Road, Emerald"},
{"lat": "-37.695114", "long": "144.959366", "postcode": "3060", "name": "JOYBELLE CHILD CARE CENTRE", "address": "Sydney Road, Fawkner"},
{"lat": "-38.150246", "long": "145.141631", "postcode": "3198", "name": "JUBILEE PARK NURSERY SCHOOL", "address": "Reservoir Road, Frankston"},
{"lat": "-37.878501", "long": "145.00966", "postcode": "3161", "name": "JUDY KLEINS CRECHE", "address": "Glen Eira Road, Caulfield"},
{"lat": "-37.960293", "long": "145.055449", "postcode": "3192", "name": "JUGGLES OCCASIONAL CHILD CARE CENTRE", "address": "12, Jamieson Street, Cheltenham"},
{"lat": "-37.719472", "long": "145.221244", "postcode": "3095", "name": "JUNIORS FARM CHILD CARE CENTRE", "address": "Floods Road, North Warrandyte, Kangaroo Ground"},
{"lat": "-36.1198", "long": "146.855484", "postcode": "3690", "name": "K 4 KIDZ CHILD CARE", "address": "Lawrence Street, West Wodonga, Wodonga"},
{"lat": "-37.919739", "long": "145.126017", "postcode": "3800", "name": "KANOOKA CHILD CARE CENTRE", "address": "29-31 Kanooka Grove, Clayton"},
{"lat": "-37.777398", "long": "145.250983", "postcode": "3134", "name": "KARDINIA CHILD CARE CENTRE", "address": "Kardinia Crescent, Warranwood"},
{"lat": "-37.725681", "long": "144.804286", "postcode": "3038", "name": "KEILOR DOWNS CHILD CARE CENTRE", "address": "39, Thornhill Drive, Keilor Downs"},
{"lat": "-37.715494", "long": "144.822966", "postcode": "3036", "name": "KEILOR GATEHOUSE", "address": "Parramatta Road, Keilor"},
{"lat": "-37.907272", "long": "145.264382", "postcode": "3156", "name": "KELLBOURNE HEIGHTS KINDERGARTEN & CHILD CARE CENTRE", "address": "Murrindal Drive, Rowville"},
{"lat": "-37.795513", "long": "144.930293", "postcode": "3000", "name": "KENSINGTON TURKISH CHILD CARE CENTRE", "address": "Wolseley Parade, Kensington"},
{"lat": "-37.793244", "long": "144.927925", "postcode": "3000", "name": "KENSINGTON WOMENS GROUP CHILD CARE ASSOCIATION INC", "address": "McCracken Street, Kensington"},
{"lat": "-37.803174", "long": "145.038369", "postcode": "3102", "name": "KEW RECREATION CHILD CARE CENTRE", "address": "Derby Place, Willsmere, Kew"},
{"lat": "-37.881724", "long": "145.178022", "postcode": "3150", "name": "KIDS ON GALLAGHERS CHILD CARE CENTRE", "address": "254, Gallaghers Road, Glen Waverley"},
{"lat": "-37.797209", "long": "144.81922", "postcode": "3020", "name": "KILLEEN STREET CHILD CARE CENTRE", "address": "Killeen Street, Sunshine West"},
{"lat": "-37.299748", "long": "144.953248", "postcode": "3764", "name": "KILMORE CHILD CARE CENTRE", "address": "White Street, Kilmore"},
{"lat": "-37.298421", "long": "144.953704", "postcode": "3764", "name": "KILMORE LEISURE CENTRE CRECHE", "address": "White Street, Kilmore"},
{"lat": "-37.964577", "long": "145.034947", "postcode": "3193", "name": "KING CLUB CRECHE", "address": "Tulip Street, Black Rock"},
{"lat": "-38.057571", "long": "145.314577", "postcode": "3806", "name": "KINGS CHILD CARE CENTRE", "address": "The Avenue, Narre Warren South"},
{"lat": "-37.995131", "long": "145.092507", "postcode": "3195", "name": "KINGSTON KIDS PRESCHOOL & CHILD CARE CENTRE", "address": "62, Warren Road, Mordialloc"},
{"lat": "-37.814469", "long": "145.248473", "postcode": "3135", "name": "KNAITH ROAD CHILD CARE CENTRE", "address": "Knaith Road, Ringwood East"},
{"lat": "-36.375436", "long": "145.410079", "postcode": "3629", "name": "KNIGHT STREET PRESCHOOL & CHILD CARE CENTRE", "address": "Knight Street, Shepparton"},
{"lat": "-37.727316", "long": "144.895366", "postcode": "3041", "name": "KOALA CHILD CARE & EARLY LEARNING CENTRE -ESSENDON FIELDS", "address": "Bristol Street, Essendon Fields"},
{"lat": "-37.836056", "long": "145.230099", "postcode": "3135", "name": "KOALA CHILD CARE & EARLY LEARNING CENTRE -HEATHMONT", "address": "Marlborough Road, Heathmont"},
{"lat": "-37.718615", "long": "144.993069", "postcode": "3073", "name": "KOALA CHILD CARE & EARLY LEARNING CENTRE -RESERVOIR", "address": "Henty Street, Reservoir"},
{"lat": "-37.838802", "long": "145.032246", "postcode": "3121", "name": "KOOYONG LAWN TENNIS CLUB CHILD CARE CENTRE", "address": "Gardiners Creek Trail, Burnley"},
{"lat": "-37.71249", "long": "144.792953", "postcode": "3038", "name": "LADY NELSON EARLY LEARNING AND CHILD CARE CENTRE", "address": "Lady Nelson Way, Keilor Downs"},
{"lat": "-37.868772", "long": "148.006403", "postcode": "3909", "name": "LAKES AQUADOME CRECHE", "address": "Palmers Road, Lakes Entrance, Cunninghame"},
{"lat": "-37.872979", "long": "148.002949", "postcode": "3909", "name": "LAKES ENTRANCE CHILD CARE CENTRE", "address": "Lakes Entrance, Shire of East Gippsland"},
{"lat": "-37.878368", "long": "145.253388", "postcode": "3180", "name": "LAKEWOOD CHILD CARE & KINDERGARTEN", "address": "Peppermint Grove, Knoxfield"},
{"lat": "-38.164413", "long": "145.155366", "postcode": "3198", "name": "LAKEWOOD CHILD CARE CENTRE", "address": "Grocery Outlet, Raphael Crescent, Frankston"},
{"lat": "-37.667224", "long": "145.015966", "postcode": "3075", "name": "LALOR CHILD CARE CENTRE", "address": "Duncan Road, Lalor"},
{"lat": "-37.849198", "long": "145.010358", "postcode": "3004", "name": "LANCASTER & FRANK HARTLEY HOUSE CHILD CARE CENTRE", "address": "Malvern Road, Prahran"},
{"lat": "-37.579222", "long": "145.137326", "postcode": "3755", "name": "LAURIMAR CHILD CARE AND EARLY LEARNING", "address": "Flaxen Hills Road, Laurimar, Doreen, Yan Yean"},
{"lat": "-38.188317", "long": "144.324739", "postcode": "3214", "name": "LEISURE LINK CHILD CARE CENTRE", "address": "Geelong Bowling Lanes, Reynolds Road, Belmont, Geelong"},
{"lat": "-36.403733", "long": "145.352639", "postcode": "3629", "name": "LIDJE MACS CHILD CARE CENTRE", "address": "Rumbalara Road, Mooroopna"},
{"lat": "-37.921819", "long": "145.173472", "postcode": "3170", "name": "LITTLE ANGELS CHILD CARE CENTRE", "address": "Anora Crescent, Mulgrave"},
{"lat": "-37.896968", "long": "144.63998", "postcode": "3030", "name": "LITTLE BLOSSOMS CHILD CARE CENTRE", "address": "Ballan Road Service Road, Werribee"},
{"lat": "-37.870515", "long": "144.76148", "postcode": "3028", "name": "LITTLE BLOSSOMS CHILD CARE CENTRE -ALTONA MEADOWS", "address": "1, Fitzpatrick Drive, Altona Meadows"},
{"lat": "-37.896715", "long": "145.101806", "postcode": "3166", "name": "LITTLE FOLKS CHILD CARE CENTRE", "address": "Ferntree Gully Road, Oakleigh East"},
{"lat": "-37.816837", "long": "145.205531", "postcode": "3132", "name": "LITTLE LEAGUE PROFESSIONAL CHILD CARE", "address": "670, Maroondah Highway, Mitcham"},
{"lat": "-37.693439", "long": "144.743281", "postcode": "3037", "name": "LITTLE MUNCHKINS CHILD CARE CENTRE", "address": "CFA, Gourlay Road, Hillside"},
{"lat": "-37.878202", "long": "145.065197", "postcode": "3146", "name": "LITTLE PADDINGTON CHILD CARE CENTRE AND KINDERGARTEN", "address": "Waverley Road, Malvern East"},
{"lat": "-37.814036", "long": "145.17637", "postcode": "3130", "name": "LITTLE RASKALS KINDERGARTEN & CHILD CARE CENTRE", "address": "Esdale Street, Nunawading"},
{"lat": "-38.034801", "long": "145.343834", "postcode": "3805", "name": "LITTLEONES CHILD CARE CENTRE", "address": "Gibb Street, Berwick, Harkaway"},
{"lat": "-38.034043", "long": "145.107337", "postcode": "3196", "name": "LOCHIEL AVENUE CHILD CARE CENTRE", "address": "6, Lochiel Avenue, Edithvale"},
{"lat": "-37.832164", "long": "145.270439", "postcode": "3155", "name": "LOTS OF CUDDLES CHILD CARE AND KINDERGARTEN", "address": "Canterbury Road, Bayswater North"},
{"lat": "-38.371411", "long": "144.857007", "postcode": "3940", "name": "LYNDEL CHILD CARE CENTRE", "address": "Darvall Street, Tootgarook"},
{"lat": "-37.42597", "long": "144.569473", "postcode": "3440", "name": "MACEDON CHILD CARE CENTRE", "address": "Scott Street, Macedon"},
{"lat": "-37.724417", "long": "145.068185", "postcode": "3087", "name": "MACLEOD YMCA CHILDRENS CRECHE", "address": "157, Wungan Street, Macleod"},
{"lat": "-37.87", "long": "145.262665", "postcode": "3156", "name": "MAGIC GARDEN CHILD CARE CENTRE", "address": "Linda Crescent, Ferntree Gully"},
{"lat": "-37.815437", "long": "145.044617", "postcode": "3122", "name": "MALIN FRIENDS NURSERY AND KINDERGARTEN", "address": "Barkers Road, Hawthorn"},
{"lat": "-35.262234", "long": "141.180111", "postcode": "3512", "name": "MALLEE MINORS CHILD CARE CENTRE -MURRAYVILLE", "address": "Gray Street, Murrayville"},
{"lat": "-35.070949", "long": "142.327726", "postcode": "3512", "name": "MALLEE MINORS CHILD CARE CENTRE -OUYEN", "address": "Mallee Highway, Ouyen"},
{"lat": "-35.503691", "long": "142.853191", "postcode": "3533", "name": "MALLEE MINORS CHILD CARE CENTRE SEA LAKE", "address": "Mudge Street, Sea Lake, Shire of Buloke"},
{"lat": "-37.863357", "long": "145.04002", "postcode": "3144", "name": "MALVERN DAY NURSERY", "address": "Tooronga Road, Malvern"},
{"lat": "-37.861406", "long": "145.027307", "postcode": "3143", "name": "MALVERN EARLY LEARNING AND CHILD CARE CENTRE", "address": "24, Llaneast Street, Armadale"},
{"lat": "-37.776675", "long": "144.885684", "postcode": "3032", "name": "MARIBYRNONG AQUATIC CENTRE OCCASIONAL CHILD CARE", "address": "Aquatic Drive, Maribyrnong"},
{"lat": "-37.98173", "long": "145.216357", "postcode": "3175", "name": "MARKET STREET OCCASIONAL CHILD CARE CENTRE", "address": "Market Street, Dandenong"},
{"lat": "-37.73732", "long": "144.932633", "postcode": "3044", "name": "MARY POPPINS CHILD CARE CENTRE", "address": "Bell Street, Pascoe Vale South"},
{"lat": "-37.881308", "long": "145.07854", "postcode": "3146", "name": "MAY ARMSTRONG CHILD CARE CENTRE", "address": "Armstrong Court, Holmesglen, Malvern East"},
{"lat": "-37.808948", "long": "144.960154", "postcode": "3000", "name": "MELBOURNE CITY CHILD CARE", "address": "428, Elizabeth Street, Melbourne City"},
{"lat": "-38.002216", "long": "145.264048", "postcode": "3803", "name": "MELS ANGELS", "address": "Cornwall Street, Hallam"},
{"lat": "-37.98252", "long": "145.08325", "postcode": "3194", "name": "MENTONE PARK CHILD CARE AND PRESCHOOL", "address": "Acacia Avenue, Mentone"},
{"lat": "-37.761173", "long": "144.99248", "postcode": "3071", "name": "MERRI COMMUNITY CHILD CARE CENTRE", "address": "Bradley Avenue, Thornbury"},
{"lat": "-37.074669", "long": "144.204487", "postcode": "3450", "name": "MERRIFIELD CHILD CARE AND EARLY LEARNING CENTRE", "address": "104, Johnstone Street, Campbells Creek"},
{"lat": "-37.712069", "long": "145.135569", "postcode": "3095", "name": "MERUKA CHILD CARE CENTRE", "address": "Gleneagle Way, Eltham"},
{"lat": "-38.230952", "long": "146.431859", "postcode": "3840", "name": "MID VALLEY KINDER AND CHILD CARE", "address": "Bridle Road, Morwell, Traralgon,"},
{"lat": "-34.186911", "long": "142.155838", "postcode": "3512", "name": "MILDURA CENTRAL CHILD CARE CENTRE", "address": "Lime Avenue, Mildura"},
{"lat": "-37.6582545", "long": "145.0552964", "postcode": "3082", "name": "MILL PARK HEIGHTS CHILD CARE CENTRE", "address": "Morang Drive, Mill Park"},
{"lat": "-38.34193", "long": "143.580708", "postcode": "3250", "name": "MILLVILLE", "address": "Hart Street, Colac"},
{"lat": "-37.97893", "long": "145.034445", "postcode": "3193", "name": "MINNOWS BEAUMARIS", "address": "126, Reserve Road, Beaumaris"},
{"lat": "-37.93605", "long": "145.060713", "postcode": "3189", "name": "MINNOWS BENTLEIGH EAST", "address": "287, South Road, Bentleigh East"},
{"lat": "-37.965809", "long": "145.060509", "postcode": "3192", "name": "MINNOWS CHELTENHAM", "address": "Centre Dandenong Road, Cheltenham"},
{"lat": "-37.717975", "long": "142.838707", "postcode": "3351", "name": "MOBILE CHILD CARE -LAKE BOLAC KINDERGARTEN", "address": "Lake Bolac Complex Road, Lake Bolac"},
{"lat": "-38.172703", "long": "146.259238", "postcode": "3840", "name": "MOE CENTRAL CHILD CARE CENTRE", "address": "Bell Street, Moe, Latrobe City"},
{"lat": "-37.875006", "long": "145.220163", "postcode": "3152", "name": "MONA CHILD CARE", "address": "17, Jenola Parade, Wantirna South"},
{"lat": "-37.888269", "long": "145.156413", "postcode": "3150", "name": "MONASH AQUATIC AND RECREATION CENTRE CRECHE", "address": "Scotchmans Creek Trail, Syndal, Glen Waverley"},
{"lat": "-37.87602", "long": "145.042107", "postcode": "3145", "name": "MONASH CAULFIELD CHILD CARE", "address": "8, Derby Road, Caulfield East"},
{"lat": "-37.875965", "long": "145.409594", "postcode": "3795", "name": "MONBULK NEIGHBOURHOOD PLAYGROUP", "address": "Moores Road, Monbulk, Silvan"},
{"lat": "-36.11321", "long": "146.861131", "postcode": "3690", "name": "MOOREFIELD PARK CHILD CARE CENTRE", "address": "Moorefield Park Drive, West Wodonga, Wodonga"},
{"lat": "-37.759639", "long": "144.971862", "postcode": "3056", "name": "MORELAND COMMUNITY CHILD CARE CO-OP  MITCHELL ST CAMPUS", "address": "Latrobe Street, Brunswick"},
{"lat": "-37.759166", "long": "144.958549", "postcode": "3056", "name": "MORELAND COMMUNITY CHILD CARE CO-OP  TINNING ST CAMPUS", "address": "259, Albion Street, Brunswick"},
{"lat": "-37.754347", "long": "144.941328", "postcode": "3055", "name": "MORELAND COMMUNITY CHILD CARE CO-OP DUNSTAN RES. CAMPUS", "address": "Everett Street, Brunswick West"},
{"lat": "-37.77553", "long": "145.093907", "postcode": "3105", "name": "MORESBY AVENUE CHILD CARE CENTRE", "address": "Moresby Avenue, Bulleen"},
{"lat": "-37.88327", "long": "145.293219", "postcode": "3156", "name": "MOUNTAIN DISTRICT WOMENS CHILD CARE CENTRE", "address": "The Avenue, Ferntree Gully"},
{"lat": "-37.993854", "long": "145.085278", "postcode": "3195", "name": "MOUNTVIEW CHILD CARE CENTRE", "address": "Mount View Avenue, Parkdale"},
{"lat": "-36.577924", "long": "146.378331", "postcode": "3677", "name": "MOYHU OCCASIONAL CHILD CARE CENTRE", "address": "Byrne Street, Moyhu"},
{"lat": "-38.186311", "long": "145.096021", "postcode": "3930", "name": "MT ELIZA HOUSE CHILD CARE & EARLY LEARNING CENTRE", "address": "Baden Powell Place, Mt Eliza"},
{"lat": "-37.686397", "long": "144.922059", "postcode": "3047", "name": "MURDELL HOUSE OCCASIONAL CHILD CARE CENTRE", "address": "Ortolan Avenue, Broadmeadows"},
{"lat": "-36.378585", "long": "145.403163", "postcode": "3629", "name": "NANCY VIBERT OCCASIONAL CHILD CARE CENTRE", "address": "Edward Street, Shepparton"},
{"lat": "-37.742897", "long": "144.995017", "postcode": "3072", "name": "NARA COMMUNITY CHILD CARE CENTRE", "address": "77-91, St Georges Road, Preston"},
{"lat": "-38.186", "long": "146.281835", "postcode": "3840", "name": "NARRACAN DRIVE CHILD CARE CENTRE", "address": "Narracan Drive, Newborough, Latrobe City"},
{"lat": "-37.745046", "long": "144.965067", "postcode": "3058", "name": "NEW FUTURES OCCASIONAL CHILD CARE CENTRE", "address": "353, Sydney Road, Coburg"},
{"lat": "-36.33515", "long": "141.648615", "postcode": "3418", "name": "NHILL CHILD CARE SERVICE", "address": "Victoria Street, Nhill"},
{"lat": "-37.917406", "long": "145.138567", "postcode": "3800", "name": "NOLA-DEE CHILD CARE CENTRE", "address": "34, Morton Street, Clayton"},
{"lat": "-37.770526", "long": "145.140622", "postcode": "3106", "name": "NONIS NURSERY", "address": "Hillcroft Drive, Templestowe"},
{"lat": "-37.820334", "long": "144.89236", "postcode": "3013", "name": "NORFOLK STREET CHILD CARE CENTRE", "address": "2, Norfolk Street, Yarraville"},
{"lat": "-37.79461", "long": "145.082428", "postcode": "3104", "name": "NORTH BALWYN PLAY CENTRE INC TRINITY CHURCH", "address": "Doncaster Road, Greythorn, Balwyn North"},
{"lat": "-37.777809", "long": "144.985081", "postcode": "3068", "name": "NORTH CHILD CARE CO-OP", "address": "171, Clauscen Street, Fitzroy North"},
{"lat": "-36.363287", "long": "145.393837", "postcode": "3629", "name": "NORTH SHEPPARTON OCCASIONAL CHILD CARE", "address": "Packham Street, Shepparton"},
{"lat": "-36.348417", "long": "145.401623", "postcode": "3629", "name": "NORTHSIDE HEALTH & FITNESS CRECHE", "address": "Numurkah Road Service Road, Shepparton"},
{"lat": "-38.374164", "long": "145.125418", "postcode": "3927", "name": "OCCASIONAL CHILD CARE CENTRE BALNARRING", "address": "Frankston-Flinders Road, Balnarring"},
{"lat": "-37.674096", "long": "145.155566", "postcode": "3089", "name": "OCCASIONAL CHILD CARE CENTRE DIAMOND CREEK", "address": "Reserve Circuit, Diamond Creek"},
{"lat": "-37.687159", "long": "144.577554", "postcode": "3337", "name": "OPEN LEARNING CHILD CARE & KINDERGARTEN", "address": "Station Road, Melton"},
{"lat": "-37.768168", "long": "144.76505", "postcode": "3023", "name": "ORAMA STREET CHILD CARE CENTRE", "address": "Orama Street, Deer Park"},
{"lat": "-37.755413", "long": "145.313302", "postcode": "3140", "name": "PADDINGTONS KINDER & CHILD CARE", "address": "El Centro, Chirnside Park, Lilydale"},
{"lat": "-37.642569", "long": "145.240616", "postcode": "3759", "name": "PANTON HILL COMMUNITY CHILD CARE CENTRE", "address": "Bishops Road, Panton Hill"},
{"lat": "-37.777185", "long": "144.954624", "postcode": "3055", "name": "PARK STREET CHILD CARE CO-OP", "address": "783, Park Street, Parkville"},
{"lat": "-37.909976", "long": "147.72225", "postcode": "3909", "name": "PAYNESVILLE CHILD CARE CENTRE", "address": "Schooner Terrace, Paynesville"},
{"lat": "-37.709539", "long": "144.927129", "postcode": "3046", "name": "PEARL STREET CHILD CARE CENTRE", "address": "Pearl Street, Glenroy"},
{"lat": "-36.1951243", "long": "147.90382", "postcode": "3707", "name": "PEEK A BOO CHILD CARE CENTRE", "address": "17, Jardine Street, Corryong"},
{"lat": "-36.1951567", "long": "147.8999964", "postcode": "3707", "name": "PEEKABOO CHILD CARE CENTRE", "address": "Bramley Street, Corryong"},
{"lat": "-36.194879", "long": "147.899691", "postcode": "3707", "name": "PEEKABOO CHILD CARE CENTRE", "address": "Bramley Street, Corryong"},
{"lat": "-37.800877", "long": "145.030191", "postcode": "3102", "name": "PEPPERCORN CHILD CARE", "address": "Princess Street, Willsmere, Kew"},
{"lat": "-37.772148", "long": "145.024278", "postcode": "3078", "name": "PERRY STREET CHILD CARE CENTRE", "address": "Separation Street, Fairfield"},
{"lat": "-34.188597", "long": "142.164327", "postcode": "3512", "name": "PLAYALONG OCCASIONAL CHILD CARE CENTRE", "address": "Lemon Avenue, Mildura"},
{"lat": "-37.891628", "long": "144.729288", "postcode": "3030", "name": "POINT COOK PLAY AND LEARN PRIVATE CHILD CARE CENTRE", "address": "Innisfail Drive, Innisfail, Point Cook"},
{"lat": "-38.313253", "long": "146.422094", "postcode": "3842", "name": "POOH CORNER CHILD CARE CENTRE", "address": "Philip Parade, Churchill"},
{"lat": "-38.383879", "long": "142.231362", "postcode": "3284", "name": "PORT FAIRY CHILD CARE CENTRE", "address": "William Street, Port Fairy, Shire of Moyne"},
{"lat": "-38.382941", "long": "142.238235", "postcode": "3284", "name": "PORT FAIRY COMMUNITY GROUP OCCASIONAL CHILD CARE SERVICE", "address": "Railway Place, Port Fairy, Shire of Moyne"},
{"lat": "-37.849219", "long": "144.995042", "postcode": "3004", "name": "PRINCES CLOSE DAY NURSERY", "address": "Princes Close, Town Hall Car Park Prahan, Prahran"},
{"lat": "-37.704787", "long": "144.768603", "postcode": "3037", "name": "QUALITY TIME CHILD CARE", "address": "Pecks Road, Overton Lea, Sydenham"},
{"lat": "-37.876764", "long": "144.657764", "postcode": "3030", "name": "QUANTIN BINNAH CHILD CARE CENTRE", "address": "Heaths Road, Werribee Waters, Werribee"},
{"lat": "-37.731912", "long": "145.078788", "postcode": "3087", "name": "RAINBOW CHILD CARE CENTRE", "address": "Moorwatha Street, Macleod"},
{"lat": "-37.976951", "long": "145.166299", "postcode": "3175", "name": "RASCALS CHILD CARE CENTRE", "address": "Horatio Street, Noble Park, Dandenong"},
{"lat": "-37.860914", "long": "145.238303", "postcode": "3152", "name": "REGENCY PARK CHILD CARE CENTRE", "address": "Alderford Drive, Wantirna"},
{"lat": "-37.820221", "long": "144.999671", "postcode": "3121", "name": "RICHMOND CRECHE AND KINDERGARTEN INC", "address": "265, Church Street, Richmond"},
{"lat": "-37.804816", "long": "145.253596", "postcode": "3135", "name": "RINGWOOD EAST CHILD CARE CENTRE", "address": "Old Lilydale Road, Ringwood East"},
{"lat": "-36.127191", "long": "146.909561", "postcode": "3690", "name": "RIVERVIEW CHILD CARE CENTRE", "address": "De Kerilleau Drive, Wodonga"},
{"lat": "-37.747961", "long": "144.959424", "postcode": "3058", "name": "ROBINSON RESERVE OCCASIONAL CHILD CARE", "address": "104A, Reynard Street, Coburg"},
{"lat": "-34.580497", "long": "142.782188", "postcode": "3549", "name": "ROBINVALE ABORIGINAL CHILD CARE", "address": "McLennan Drive, Robinvale, Rural City of Swan Hill"},
{"lat": "-36.362731", "long": "144.700775", "postcode": "3564", "name": "ROCHESTER & DISTRICT CHILD CARE CENTRE", "address": "Mackay Street, Rochester,"},
{"lat": "-37.688921", "long": "144.884705", "postcode": "3043", "name": "ROLY POLY EDUCATIONAL CHILD CARE (GLADSTONE PARK)", "address": "North Circular Road, Gladstone Park"},
{"lat": "-37.695349", "long": "144.767851", "postcode": "3037", "name": "ROLY POLY EDUCATIONAL CHILD CARE (SYDENHAM)", "address": " Melton Highway, Sydenham"},
{"lat": "-37.743845", "long": "145.066977", "postcode": "3084", "name": "ROSANNA VILLAGE CHILD CARE CENTRE", "address": "Turnham Avenue, Rosanna"},
{"lat": "-37.77873", "long": "144.875674", "postcode": "3019", "name": "ROSE GARDEN CHILD CARE MAIDSTONE", "address": "Hampstead Road, Maidstone"},
{"lat": "-37.943756", "long": "145.210517", "postcode": "3175", "name": "ROSEWOOD DOWNS CHILD CARE CENTRE", "address": "Murray Road, Dandenong North, Dandenong"},
{"lat": "-37.631022", "long": "144.931217", "postcode": "3048", "name": "ROXBURGH PARK YOUTH & RECREATION CENTRE CRECHE", "address": "Thomas Brunton Parade, Roxburgh Park"},
{"lat": "-37.79503", "long": "144.949926", "postcode": "3055", "name": "ROYAL CHILDRENS HOSPITAL STAFF CRECHE", "address": "South Building, Main Street, Parkville"},
{"lat": "-37.798951", "long": "144.954761", "postcode": "3055", "name": "ROYAL WOMENS HOSPITAL CHILD CARE CENTRE", "address": "Flemington Road, Parkville"},
{"lat": "-37.804097", "long": "144.989341", "postcode": "3066", "name": "RUPERT STREET CHILD CARE & KINDERGARTEN -BUC", "address": "115-117, Rupert Street, Collingwood"},
{"lat": "-36.588013", "long": "145.015366", "postcode": "3564", "name": "RUSHWORTH KINDERGARTEN & CHILD CARE", "address": "High Street, Rushworth, Shire of Campaspe"},
{"lat": "-37.795367", "long": "144.900145", "postcode": "3011", "name": "SALTWATER CHILD CARE CENTRE", "address": "14, Nicholson Street, Footscray"},
{"lat": "-37.835782", "long": "145.057477", "postcode": "3124", "name": "SAMANTHAS CHILD CARE CENTRE", "address": "Seymour Grove, Camberwell"},
{"lat": "-37.950261", "long": "145.005731", "postcode": "3191", "name": "SANDRINGHAM CHILD CARE CENTRE", "address": "Sandringham Road, Sandringham"},
{"lat": "-37.877989", "long": "145.011259", "postcode": "3185", "name": "SHELFORD CHILD CARE & EARLY LEARNING CENTRE", "address": "Elsternwick"},
{"lat": "-38.389839", "long": "142.541887", "postcode": "3280", "name": "SHERWOOD PARK CHILD CARE CENTRE", "address": "Deakin University (Warrnambool Campus), Science Lane, Warrnambool, City of Warrnambool"},
{"lat": "-37.92728", "long": "145.107304", "postcode": "3167", "name": "SHINE CHILD CARE", "address": "Centre Road, Oakleigh South"},
{"lat": "-37.78477", "long": "144.906861", "postcode": "3032", "name": "SHOWGROUNDS CHILD CARE", "address": "Leonard Crescent, Ascot Vale"},
{"lat": "-36.620003", "long": "142.469664", "postcode": "3396", "name": "SLAAM OCCASIONAL CHILD CARE CENTRE", "address": "Marma Street, Murtoa, Shire of Yarriambiack"},
{"lat": "-37.965719", "long": "145.169026", "postcode": "3175", "name": "SMALL ONES LIVE & LEARN CHILD CARE CENTRE", "address": "Joy Parade, Noble Park, Dandenong"},
{"lat": "-38.1144", "long": "145.194335", "postcode": "3201", "name": "SNUGGLES CHILD CARE AND EARLY LEARNING CENTRE", "address": "McCormicks Road, Carrum Downs"},
{"lat": "-37.892638", "long": "145.020708", "postcode": "3162", "name": "SOUTH CAULFIELD CHILD CARE CENTRE", "address": "6, Ellington Street, Caulfield South"},
{"lat": "-37.844891", "long": "144.957274", "postcode": "3206", "name": "SOUTH MELBOURNE CHILD CARE", "address": "Carter Street, Albert Park"},
{"lat": "-37.744862", "long": "144.806574", "postcode": "3021", "name": "ST ALBANS MAIN ROAD EAST CHILD CARE CENTRE", "address": "Main Road East, St Albans"},
{"lat": "-37.742581", "long": "144.792363", "postcode": "3021", "name": "ST ALBANS SWEET SOUNDS CHILD CARE CENTRE", "address": "Elizabeth Street, St Albans"},
{"lat": "-38.400867", "long": "146.155198", "postcode": "3950", "name": "ST ANDREWS CHILD CARE CENTRE", "address": "Ridgway, Mirboo North"},
{"lat": "-37.923778", "long": "145.124467", "postcode": "3800", "name": "ST DOMINIC SAVIO CHILD CARE CENTRE", "address": "Donald Street, Clayton"},
{"lat": "-37.712747", "long": "145.124105", "postcode": "3094", "name": "ST FAITHS CHILD CARE AND EARLY LEARNING CENTRE", "address": "8, Price Avenue, Montmorency"},
{"lat": "-37.866788", "long": "144.998351", "postcode": "3183", "name": "ST KILDA EAST CHILD CARE CENTRE", "address": "Balston Street, Balaclava"},
{"lat": "-37.985242", "long": "145.068924", "postcode": "3194", "name": "STAWELL STREET CHILD CARE CENTRE", "address": "4, Stawell Street, Mentone"},
{"lat": "-38.253557", "long": "144.55189", "postcode": "3214", "name": "STEPPING STONES - OCEAN GROVE", "address": "7-79, Tareeda Way, Collendina, Ocean Grove, Marcus Hill"},
{"lat": "-36.7621167", "long": "144.3142917", "postcode": "3550", "name": "STRATHDALE CHILD CARE CENTRE", "address": "Crook Street, Strathdale, Bendigo"},
{"lat": "-37.734089", "long": "144.919553", "postcode": "3041", "name": "STRATHMORE CHILD CARE CENTRE", "address": "Loeman Street, Strathmore"},
{"lat": "-37.57588", "long": "144.724873", "postcode": "3429", "name": "SUNBURY AQUATIC CHILD CARE CENTRE", "address": "Ligar Street, Sunbury"},
{"lat": "-37.831788", "long": "145.112152", "postcode": "3128", "name": "SURREY HILLS BAPTIST CHURCH CHILD CARE CENTRE", "address": "267, Elgar Road, Box Hill South"},
{"lat": "-37.825849", "long": "145.100423", "postcode": "3127", "name": "SURREY HILLS CHILD CARE CENTRE", "address": "Sydenham Lane, Surrey Hills"},
{"lat": "-37.851481", "long": "145.026578", "postcode": "3143", "name": "SUTHERLAND HOUSE", "address": "38, Huntingtower Road, Armadale"},
{"lat": "-35.34104", "long": "143.548513", "postcode": "3549", "name": "SWAN HILL COMMUNITY HOUSE OCCASIONAL CHILD CARE", "address": "McCallum Street, Swan Hill"},
{"lat": "-37.820273", "long": "145.037885", "postcode": "3122", "name": "SWINBURNE COMMUNITY CHILD CARE", "address": "Park Street, Hawthorn"},
{"lat": "-37.870218", "long": "145.143564", "postcode": "3149", "name": "SYNDAL CHILD CARE & EARLY LEARNING CENTRE", "address": "6, Huxtable Street, Mount Waverley"},
{"lat": "-37.898054", "long": "145.315413", "postcode": "3785", "name": "TALASKIA COMMUNITY CHILD CARE", "address": "Edward Street, Upper Ferntree Gully"},
{"lat": "-36.115673", "long": "146.893731", "postcode": "3690", "name": "TANGAMBALANGA CHILD CARE CENTRE", "address": "Huon Street, Wodonga"},
{"lat": "-38.369771", "long": "142.465309", "postcode": "3280", "name": "THE MATRON SWINTON CHILD CARE CENTRE", "address": "Lipook Court, Warrnambool"},
{"lat": "-37.804237", "long": "145.096419", "postcode": "3103", "name": "THE MINIFIE PARK CHILD CARE CENTRE", "address": "290, Belmore Road, Balwyn"},
{"lat": "-37.681746", "long": "144.998615", "postcode": "3074", "name": "THOMASTOWN CHILD CARE CENTRE", "address": "Edgars Road, Thomastown"},
{"lat": "-37.725681", "long": "144.804286", "postcode": "3038", "name": "THORNHILL DRIVE KINDERGARTEN AND CHILDRENS CENTRE", "address": "39, Thornhill Drive, Keilor Downs"},
{"lat": "-37.83638", "long": "145.09349", "postcode": "3127", "name": "THROUGH ROAD CHILD CARE CENTRE", "address": "Webster Street, Burwood"},
{"lat": "-37.845632", "long": "145.05573", "postcode": "3124", "name": "TIGGERS", "address": "895 - 897, Toorak Road, Camberwell"},
{"lat": "-37.920932", "long": "145.025899", "postcode": "3204", "name": "TIME OUT\" CHILD CARE BENTLEIGH\"", "address": "20 - 24, Brewer Road, Bentleigh"},
{"lat": "-37.751834", "long": "145.176063", "postcode": "3109", "name": "TIME-OUT\" CHILD CARE -DONCASTER EAST\"", "address": "Deep Creek Drive, Deep Creek, Doncaster East"},
{"lat": "-37.796084", "long": "144.974", "postcode": "3054", "name": "TOMMASO FIASCHI CHILD CARE CENTRE", "address": "Station Street, Carlton"},
{"lat": "-37.880875", "long": "145.01577", "postcode": "3161", "name": "TREE HOUSE CHILD CARE", "address": "Kooyong Road, Caulfield North"},
{"lat": "-37.870284", "long": "144.987998", "postcode": "3182", "name": "TREE HOUSE CHILD CARE", "address": "27, Brighton Road, St Kilda"},
{"lat": "-38.132236", "long": "144.345413", "postcode": "3214", "name": "TREE HOUSE CHILD CARE", "address": "3-63, Church Street, Geelong West, Geelong"},
{"lat": "-37.772576", "long": "144.922475", "postcode": "3032", "name": "TREE HOUSE CHILD CARE (ASCOT VALE)", "address": "Maribyrnong Road, Ascot Vale"},
{"lat": "-37.780414", "long": "145.146906", "postcode": "3109", "name": "TRY DONCASTER ACTIVITIES CENTRE", "address": "George Street, East Doncaster Junction, Doncaster East"},
{"lat": "-37.845031", "long": "144.99559", "postcode": "3165", "name": "TRY YOUTH SOUTH YARRA", "address": "Simmons Street, South Yarra"},
{"lat": "-37.49497", "long": "144.602593", "postcode": "3440", "name": "TWIN OAKS CHILD CARE", "address": "Sheedy Road, Gisborne"},
{"lat": "-38.259796", "long": "145.188777", "postcode": "3912", "name": "TYABB CHILD CARE CENTRE", "address": "Dennis Street, Tyabb, Somerville"},
{"lat": "-37.872396", "long": "145.237745", "postcode": "3152", "name": "TYNER ROAD OCCASIONAL CHILD CARE CENTRE", "address": "27, Tyner Road, Wantirna South"},
{"lat": "-37.652778", "long": "145.030508", "postcode": "3075", "name": "UNAS CHILD CARE CENTRE", "address": "Cnr Cooper St, Epping"},
{"lat": "-37.78191", "long": "144.935614", "postcode": "3000", "name": "UNCLE BOBS CDC", "address": "Flemington Street, Travancore"},
{"lat": "-36.276461", "long": "145.21872", "postcode": "3629", "name": "UNDERA FUN GROUP", "address": "Anderson Street, Undera"},
{"lat": "-37.8951389", "long": "145.0779167", "postcode": "3166", "name": "VICTORIAN SCHOOLS NURSERY", "address": "Djerring Trail, Hughesdale"},
{"lat": "-37.730137", "long": "145.101908", "postcode": "3085", "name": "VIEWBANK CHILD CARE CENTRE", "address": "Jedem Close, Viewbank"},
{"lat": "-37.910672", "long": "145.061366", "postcode": "3189", "name": "VIRGINIA PARK CHILD CARE CENTRE", "address": "236, East Boundary Road, Bentleigh East"},
{"lat": "-37.422675", "long": "144.977696", "postcode": "3764", "name": "WALLAN CHILD CARE & KINDERGARTEN", "address": "Stevenson Street, Wallara Waters, Wallan"},
{"lat": "-36.360537", "long": "146.311844", "postcode": "3677", "name": "WANGARATTA CHILD CARE CENTRE", "address": "Handley Street, Wangaratta"},
{"lat": "-36.257989", "long": "142.391847", "postcode": "3396", "name": "WARRACKNABEAL CHILD CARE CENTRE", "address": "Werrigar Street, Warracknabeal, Shire of Yarriambiack"},
{"lat": "-36.251404", "long": "142.39476", "postcode": "3396", "name": "WARRACKNABEAL NEIGHBOURHOOD HOUSE CHILD CARE CENTRE", "address": "Scott Street, Warracknabeal, Shire of Yarriambiack"},
{"lat": "-38.159013", "long": "145.92975", "postcode": "3820", "name": "WARRAGUL CHILD CARE CENTRE", "address": "Albert Street, Warragul, Shire of Baw Baw"},
{"lat": "-37.742347", "long": "145.230718", "postcode": "3134", "name": "WARRANDYTE CHILD CARE & PRESCHOOL CENTRE CO-OP LTD", "address": "Masonic Avenue, Warrandyte Bridge, Warrandyte, Warrandyte South"},
{"lat": "-37.740361", "long": "145.048618", "postcode": "3081", "name": "WATERDALE CHILD CARE", "address": "Waterdale Road, Heidelberg West"},
{"lat": "-37.71328", "long": "145.086794", "postcode": "3087", "name": "WATSONIA OCCASIONAL CHILD CARE", "address": "Frensham Road, Watsonia"},
{"lat": "-37.950959", "long": "145.058175", "postcode": "3192", "name": "WAVES LEISURE CENTRE CHILD CARE CENTRE", "address": "148, Chesterville Road, Moorabbin East, Moorabbin"},
{"lat": "-37.95891", "long": "145.377355", "postcode": "3159", "name": "WELLINGTON ROAD PLAYSKOOL CHILD CARE CENTRE", "address": "Wellington Road, Narre Warren East"},
{"lat": "-38.288829", "long": "145.189758", "postcode": "3915", "name": "WESTERNPORT CHILD CARE CENTRE", "address": "Marine Parade, Hastings"},
{"lat": "-38.198632", "long": "145.492996", "postcode": "3981", "name": "WESTERNPORT CHILD CARE CENTRE AND KINDERGARTEN KOO WEE RUP", "address": "Koo Wee Rup - Longwarry Road, Koo Wee Rup"},
{"lat": "-37.673096", "long": "144.907711", "postcode": "3047", "name": "WESTMEADOWS HEIGHTS OCCASIONAL CHILD CARE", "address": "Village Crescent, Westmeadows"},
{"lat": "-36.764159", "long": "146.41493", "postcode": "3677", "name": "WHITFIELD COMMUNITY CHILD CARE CENTRE", "address": "Wangaratta - Whitfield Road, Whitfield, Rural City of Wangaratta"},
{"lat": "-37.865291", "long": "144.903822", "postcode": "3016", "name": "WILLIAMSTOWN CHILD CARE CENTRE CO-OPERATIVE", "address": "Cecil Street, Williamstown"},
{"lat": "-37.79499", "long": "144.956041", "postcode": "3055", "name": "WIMBLE STREET CHILD CARE CO-OP", "address": "Butler Lane, Parkville"},
{"lat": "-37.737583", "long": "144.992891", "postcode": "3072", "name": "WONDER WORLD PLAY CENTRE", "address": "Ford Street, Preston"},
{"lat": "-37.739406", "long": "145.268563", "postcode": "3115", "name": "WONGA PARK COMMUNITY COTTAGE CHILD CARE CENTRE", "address": "7, Old Yarra Road, Wonga Park"},
{"lat": "-37.351089", "long": "144.536702", "postcode": "3440", "name": "WOODEND CARE FOR KIDS", "address": "East Street, Woodend"},
{"lat": "-37.354436", "long": "144.527741", "postcode": "3440", "name": "WOODEND COMMUNITY HUB -CHILD CARE", "address": "Woodend, Forest Street:Tylden - Woodend Road, Woodend, Shire of Macedon Ranges"},
{"lat": "-38.2612512", "long": "144.5260353", "postcode": "3214", "name": "WOODLANDS HOUSE CHILD CARE", "address": "Wyatt Street, Collendina, Ocean Grove, City of Greater Geelong"},
{"lat": "-37.882681", "long": "144.688598", "postcode": "3030", "name": "WOODVILLE CHILD CARE CENTRE", "address": "Woodville Park Drive, Woodville, Hoppers Crossing, Werribee"},
{"lat": "-37.648255", "long": "145.374869", "postcode": "3775", "name": "YARRA GLEN CHILD CARE CENTRE", "address": "Forest Street, Yarra Glen"},
{"lat": "-37.815046", "long": "145.013161", "postcode": "3121", "name": "YARRABERG CHILD CARE & COMMUNITY CENTRE", "address": "4, River Street, Richmond"},
{"lat": "-37.212304", "long": "145.422793", "postcode": "3714", "name": "YEA CHILDRENS CENTRE TAKE A BREAK CHILD CARE", "address": "Goulburn Valley Highway, Yea, Shire of Murrindindi"},
