State,Municipality,Name Id,Place Name,Place Name Status,Feature Type Code,Feature Type,Longitude,Latitude,Place Id,Historical Information,Origin Language,Australian Indigenous Language,Anzac Related Name,Date First Recorded Day,Date First Recorded Month,Date First Recorded Year,Source,Author,Title,Date Published Day,Date Published Month,Date Published Year,Publisher,Place of Publication,Pages(s),Editor,Chapter Title,Journal Name,Issue,Year,Newspaper,File Number,Site Owner,Page Title,Site Title,Url,Location,Type of Artefact,Cartographer,Scale,Informant,Tape Title,Tape Number,Municipal Name,Endorsed by Council,Council Minutes,Organisation Name,Endorsed by GPNAP
VIC,CASEY CITY,115678,123KIDS,RECORDED,KIND,KINDERGARTEN,145.266534,-38.037796,115433,,,,,,,,,,,,,,,,,,,,,,,,,,,,,,,,,,,,,,,
VIC,BOROONDARA CITY,115679,3 APPLES CHILDCARE CENTRE & KINDERGARTEN,RECORDED,KIND,KINDERGARTEN,145.081836,-37.811354,115434,,,,,,,,,,,,,,,,,,,,,,,,,,,,,,,,,,,,,,,
VIC,HOBSONS BAY CITY,115680,5 STAR CHILDCARE & EARLY LEARNING CENTRE,RECORDED,KIND,KINDERGARTEN,144.825369,-37.831777,115435,,,,,,,,,,,,,,,,,,,,,,,,,,,,,,,,,,,,,,,
VIC,CENTRAL GOLDFIELDS SHIRE,118295,A G LEECH KINDERGARTEN,RECORDED,KIND,KINDERGARTEN,143.731878,-37.051792,118050,,,,,,,,,,,,,,,,,,,,,,,,,,,,,,,,,,,,,,,
VIC,HUME CITY,115681,A STEP AHEAD EARLY LEARNING CENTRE,RECORDED,KIND,KINDERGARTEN,144.715655,-37.561997,115436,,,,,,,,,,,,,,,,,,,,,,,,,,,,,,,,,,,,,,,
VIC,GLEN EIRA CITY,115821,ABELES LIBERMAN PRESCHOOL,RECORDED,KIND,KINDERGARTEN,145.011624,-37.871206,115576,,,,,,,,,,,,,,,,,,,,,,,,,,,,,,,,,,,,,,,
VIC,KINGSTON CITY,115822,ACACIA AVENUE PRESCHOOL,RECORDED,KIND,KINDERGARTEN,145.086776,-37.982668,115577,,,,,,,,,,,,,,,,,,,,,,,,,,,,,,,,,,,,,,,
VIC,YARRA CITY,115823,ACACIA CHILDRENS CENTRE,RECORDED,KIND,KINDERGARTEN,144.997483,-37.814672,115578,,,,,,,,,,,,,,,,,,,,,,,,,,,,,,,,,,,,,,,
VIC,GREATER DANDENONG CITY,115828,ACTIVE LEARNING CHILDCARE: BALMORAL AVENUE,RECORDED,KIND,KINDERGARTEN,145.144315,-37.94848,115583,,,,,,,,,,,,,,,,,,,,,,,,,,,,,,,,,,,,,,,
VIC,PORT PHILLIP CITY,115829,ADA MARY ABECKETT CHILDRENS CENTRE INC,RECORDED,KIND,KINDERGARTEN,144.919549,-37.838788,115584,,,,,,,,,,,,,,,,,,,,,,,,,,,,,,,,,,,,,,,
VIC,GLEN EIRA CITY,115830,ADASS ISRAEL PRESCHOOL,RECORDED,KIND,KINDERGARTEN,145.007868,-37.883851,115585,,,,,,,,,,,,,,,,,,,,,,,,,,,,,,,,,,,,,,,
VIC,WYNDHAM CITY,115831,AEROKIDS,RECORDED,KIND,KINDERGARTEN,144.681786,-37.876981,115586,,,,,,,,,,,,,,,,,,,,,,,,,,,,,,,,,,,,,,,
VIC,GREATER BENDIGO CITY,118338,AIRPORT (STRATHDALE) PRESCHOOL,RECORDED,KIND,KINDERGARTEN,144.326379,-36.737042,118093,,,,,,,,,,,,,,,,,,,,,,,,,,,,,,,,,,,,,,,
VIC,MOONEE VALLEY CITY,115834,AIRPORT WEST KINDERGARTEN,RECORDED,KIND,KINDERGARTEN,144.881428,-37.723448,115589,,,,,,,,,,,,,,,,,,,,,,,,,,,,,,,,,,,,,,,
VIC,BRIMBANK CITY,115835,ALBANVALE COMMUNITY KINDERGARTEN,RECORDED,KIND,KINDERGARTEN,144.773427,-37.744488,115590,,,,,,,,,,,,,,,,,,,,,,,,,,,,,,,,,,,,,,,
VIC,PORT PHILLIP CITY,115836,ALBERT PARK COLLEGE CHILDCARE CENTRE,RECORDED,KIND,KINDERGARTEN,144.932036,-37.836148,115591,,,,,,,,,,,,,,,,,,,,,,,,,,,,,,,,,,,,,,,
VIC,PORT PHILLIP CITY,115837,ALBERT PARK PRESCHOOL CENTRE,RECORDED,KIND,KINDERGARTEN,144.957676,-37.841167,115592,,,,,,,,,,,,,,,,,,,,,,,,,,,,,,,,,,,,,,,
VIC,BRIMBANK CITY,115838,ALBION KINDERGARTEN,RECORDED,KIND,KINDERGARTEN,144.820401,-37.778378,115593,,,,,,,,,,,,,,,,,,,,,,,,,,,,,,,,,,,,,,,
VIC,KNOX CITY,115839,ALCHESTER VILLAGE PRESCHOOL,RECORDED,KIND,KINDERGARTEN,145.294926,-37.846507,115594,,,,,,,,,,,,,,,,,,,,,,,,,,,,,,,,,,,,,,,
VIC,KNOX CITY,115840,ALEXANDER MAGIT KINDERGARTEN,RECORDED,KIND,KINDERGARTEN,145.270202,-37.886558,115595,,,,,,,,,,,,,,,,,,,,,,,,,,,,,,,,,,,,,,,
VIC,GREATER GEELONG CITY,115841,ALEXANDER THOMSON PRESCHOOL,RECORDED,KIND,KINDERGARTEN,144.341695,-38.174275,115596,,,,,,,,,,,,,,,,,,,,,,,,,,,,,,,,,,,,,,,
VIC,MURRINDINDI SHIRE,118339,ALEXANDRA & DISTRICT KINDERGARTEN,RECORDED,KIND,KINDERGARTEN,145.708662,-37.192264,118094,,,,,,,,,,,,,,,,,,,,,,,,,,,,,,,,,,,,,,,
VIC,BRIMBANK CITY,115842,ALEXANDRA AVENUE CHILDRENS CENTRE,RECORDED,KIND,KINDERGARTEN,144.838094,-37.783078,115597,,,,,,,,,,,,,,,,,,,,,,,,,,,,,,,,,,,,,,,
VIC,GREATER SHEPPARTON CITY,118341,ALEXANDRA STREET KINDERGARTEN,RECORDED,KIND,KINDERGARTEN,145.358668,-36.393005,118096,,,,,,,,,,,,,,,,,,,,,,,,,,,,,,,,,,,,,,,
VIC,DAREBIN CITY,115844,ALFRED NUTTALL MEMORIAL KINDERGARTEN,RECORDED,KIND,KINDERGARTEN,145.022207,-37.771905,115599,,,,,,,,,,,,,,,,,,,,,,,,,,,,,,,,,,,,,,,
VIC,BOROONDARA CITY,115845,ALFRED ROAD KINDERGARTEN,RECORDED,KIND,KINDERGARTEN,145.088891,-37.854464,115600,,,,,,,,,,,,,,,,,,,,,,,,,,,,,,,,,,,,,,,
VIC,BALLARAT CITY,118343,ALFREDTON PRESCHOOL,RECORDED,KIND,KINDERGARTEN,143.806443,-37.552505,118098,,,,,,,,,,,,,,,,,,,,,,,,,,,,,,,,,,,,,,,
VIC,KNOX CITY,115846,ALICE JOHNSON 3 YEAR OLD GROUP,RECORDED,KIND,KINDERGARTEN,145.264159,-37.869063,115601,,,,,,,,,,,,,,,,,,,,,,,,,,,,,,,,,,,,,,,
VIC,KNOX CITY,115847,ALICE JOHNSON KINDERGARTEN,RECORDED,KIND,KINDERGARTEN,145.264075,-37.869352,115602,,,,,,,,,,,,,,,,,,,,,,,,,,,,,,,,,,,,,,,
VIC,YARRA RANGES SHIRE,115848,ALL SAINTS PRESCHOOL YARRA JUNCTION INC,RECORDED,KIND,KINDERGARTEN,145.610962,-37.781985,115603,,,,,,,,,,,,,,,,,,,,,,,,,,,,,,,,,,,,,,,
VIC,KNOX CITY,115849,ALLANDALE KINDERGARTEN,RECORDED,KIND,KINDERGARTEN,145.289383,-37.862542,115604,,,,,,,,,,,,,,,,,,,,,,,,,,,,,,,,,,,,,,,
VIC,WARRNAMBOOL CITY,118344,ALLANSFORD & DISTRICT PRESCHOOL,RECORDED,KIND,KINDERGARTEN,142.598194,-38.385977,118099,,,,,,,,,,,,,,,,,,,,,,,,,,,,,,,,,,,,,,,
VIC,GREATER GEELONG CITY,115850,ALLANVALE PRESCHOOL,RECORDED,KIND,KINDERGARTEN,144.469337,-38.187422,115605,,,,,,,,,,,,,,,,,,,,,,,,,,,,,,,,,,,,,,,
VIC,CASEY CITY,115851,ALLARA KINDERGARTEN,RECORDED,KIND,KINDERGARTEN,145.265356,-37.966512,115606,,,,,,,,,,,,,,,,,,,,,,,,,,,,,,,,,,,,,,,
VIC,SOUTH GIPPSLAND SHIRE,118345,ALLORA KINDERGARTEN,RECORDED,KIND,KINDERGARTEN,145.94028,-38.475005,118100,,,,,,,,,,,,,,,,,,,,,,,,,,,,,,,,,,,,,,,
VIC,YARRA CITY,115852,ALPHA CHILDRENS CENTRE,RECORDED,KIND,KINDERGARTEN,145.005687,-37.822633,115607,,,,,,,,,,,,,,,,,,,,,,,,,,,,,,,,,,,,,,,
VIC,YARRA CITY,115853,ALPHINGTON GRAMMAR PRESCHOOL,RECORDED,KIND,KINDERGARTEN,145.03566,-37.779932,115608,,,,,,,,,,,,,,,,,,,,,,,,,,,,,,,,,,,,,,,
VIC,HOBSONS BAY CITY,115854,ALTONA GATE KINDERGARTEN,RECORDED,KIND,KINDERGARTEN,144.847713,-37.832925,115609,,,,,,,,,,,,,,,,,,,,,,,,,,,,,,,,,,,,,,,
VIC,HOBSONS BAY CITY,115855,ALTONA KINDERGARTEN,RECORDED,KIND,KINDERGARTEN,144.825783,-37.867723,115610,,,,,,,,,,,,,,,,,,,,,,,,,,,,,,,,,,,,,,,
VIC,HOBSONS BAY CITY,115857,ALTONA MEADOWS COMMUNITY CENTRE OCCASIONAL CARE,RECORDED,KIND,KINDERGARTEN,144.783099,-37.877917,115612,,,,,,,,,,,,,,,,,,,,,,,,,,,,,,,,,,,,,,,
VIC,HOBSONS BAY CITY,115858,ALTONA MEADOWS KINDERGARTEN,RECORDED,KIND,KINDERGARTEN,144.781355,-37.87095,115613,,,,,,,,,,,,,,,,,,,,,,,,,,,,,,,,,,,,,,,
VIC,HOBSONS BAY CITY,100083,ALTONA NORTH EARLY CHILDHOOD CENTRE,REGISTERED,KIND,KINDERGARTEN,144.85,-37.8427778,100075,,,,,,,,,,,,,,,,,,,,,,,,,,,,,,,,,,,,,,,
VIC,HOBSONS BAY CITY,115862,ALTONA WEST KINDERGARTEN,RECORDED,KIND,KINDERGARTEN,144.813606,-37.861666,115617,,,,,,,,,,,,,,,,,,,,,,,,,,,,,,,,,,,,,,,
VIC,CASEY CITY,115865,AMBERLEY PARK CHILDCARE & EARLY LEARNING CENTRE,RECORDED,KIND,KINDERGARTEN,145.293462,-38.046283,115620,,,,,,,,,,,,,,,,,,,,,,,,,,,,,,,,,,,,,,,
VIC,CARDINIA SHIRE,115868,ANDREWS COMMUNITY KINDERGARTEN,RECORDED,KIND,KINDERGARTEN,145.470647,-38.073305,115623,,,,,,,,,,,,,,,,,,,,,,,,,,,,,,,,,,,,,,,
VIC,SURF COAST SHIRE,118347,ANGLESEA KINDERGARTEN,RECORDED,KIND,KINDERGARTEN,144.185377,-38.409558,118102,,,,,,,,,,,,,,,,,,,,,,,,,,,,,,,,,,,,,,,
VIC,MARIBYRNONG CITY,115666,ANGLISS CHILDRENS CENTRE,RECORDED,KIND,KINDERGARTEN,144.906973,-37.796785,115421,,,,,,,,,,,,,,,,,,,,,,,,,,,,,,,,,,,,,,,
VIC,MORELAND CITY,115869,ANNE SGRO CHILDRENS CENTRE,RECORDED,KIND,KINDERGARTEN,144.960868,-37.734234,115624,,,,,,,,,,,,,,,,,,,,,,,,,,,,,,,,,,,,,,,
VIC,DAREBIN CITY,115870,ANNIE DENNIS CHILDRENS CENTRE,RECORDED,KIND,KINDERGARTEN,144.99964,-37.77347,115625,,,,,,,,,,,,,,,,,,,,,,,,,,,,,,,,,,,,,,,
VIC,YARRA CITY,115872,ANNIE TODD CHILDRENS CENTRE -BUC,RECORDED,KIND,KINDERGARTEN,144.979964,-37.804283,115627,,,,,,,,,,,,,,,,,,,,,,,,,,,,,,,,,,,,,,,
VIC,COLAC OTWAY SHIRE,118350,APEX PRESCHOOL,RECORDED,KIND,KINDERGARTEN,143.580479,-38.366186,118105,,,,,,,,,,,,,,,,,,,,,,,,,,,,,,,,,,,,,,,
VIC,COLAC OTWAY SHIRE,118284,APOLLO BAY CHILDRENS CENTRE,RECORDED,KIND,KINDERGARTEN,143.664518,-38.753927,118039,,,,,,,,,,,,,,,,,,,,,,,,,,,,,,,,,,,,,,,
VIC,COLAC OTWAY SHIRE,118351,APOLLO BAY KINDERGARTEN,RECORDED,KIND,KINDERGARTEN,143.664416,-38.754584,118106,,,,,,,,,,,,,,,,,,,,,,,,,,,,,,,,,,,,,,,
VIC,BANYULE CITY,115875,APOLLO PARKWAYS PRESCHOOL,RECORDED,KIND,KINDERGARTEN,145.105083,-37.695438,115630,,,,,,,,,,,,,,,,,,,,,,,,,,,,,,,,,,,,,,,
VIC,WANGARATTA RURAL CITY,118352,APPIN PARK KINDERGARTEN,RECORDED,KIND,KINDERGARTEN,146.298442,-36.353611,118107,,,,,,,,,,,,,,,,,,,,,,,,,,,,,,,,,,,,,,,
VIC,MONASH CITY,115876,APPLETREE HILL KINDERGARTEN,RECORDED,KIND,KINDERGARTEN,145.182967,-37.883686,115631,,,,,,,,,,,,,,,,,,,,,,,,,,,,,,,,,,,,,,,
VIC,ARARAT RURAL CITY,118355,ARARAT NORTH KINDER CARE,RECORDED,KIND,KINDERGARTEN,142.939915,-37.274838,118110,,,,,,,,,,,,,,,,,,,,,,,,,,,,,,,,,,,,,,,
VIC,STONNINGTON CITY,115882,ARMADALE EARLY LEARNING CENTRE,RECORDED,KIND,KINDERGARTEN,145.013717,-37.853625,115637,,,,,,,,,,,,,,,,,,,,,,,,,,,,,,,,,,,,,,,
VIC,WYNDHAM CITY,115883,ARNDELL PARK EARLY CHILDHOOD LEARNING CENTRE,RECORDED,KIND,KINDERGARTEN,144.727814,-37.858574,115638,,,,,,,,,,,,,,,,,,,,,,,,,,,,,,,,,,,,,,,
VIC,MAROONDAH CITY,115885,ARRABRI KINDERGARTEN INC,RECORDED,KIND,KINDERGARTEN,145.293691,-37.831179,115640,,,,,,,,,,,,,,,,,,,,,,,,,,,,,,,,,,,,,,,
VIC,GREATER SHEPPARTON CITY,118356,ARTHUR DICKMAN CHILDCARE CENTRE,RECORDED,KIND,KINDERGARTEN,145.401558,-36.376107,118111,,,,,,,,,,,,,,,,,,,,,,,,,,,,,,,,,,,,,,,
VIC,MOONEE VALLEY CITY,115887,ASCOT KINDERGARTEN,RECORDED,KIND,KINDERGARTEN,144.923517,-37.777127,115642,,,,,,,,,,,,,,,,,,,,,,,,,,,,,,,,,,,,,,,
VIC,MOONEE VALLEY CITY,115888,ASCOT VALE PROGRESS KINDERGARTEN,RECORDED,KIND,KINDERGARTEN,144.904693,-37.780762,115643,,,,,,,,,,,,,,,,,,,,,,,,,,,,,,,,,,,,,,,
VIC,MONASH CITY,115891,ASHWOOD CHILDRENS CENTRE,RECORDED,KIND,KINDERGARTEN,145.104556,-37.867858,115646,,,,,,,,,,,,,,,,,,,,,,,,,,,,,,,,,,,,,,,
VIC,MONASH CITY,115892,ASHWOOD MEMORIAL KINDERGARTEN,RECORDED,KIND,KINDERGARTEN,145.107131,-37.860072,115647,,,,,,,,,,,,,,,,,,,,,,,,,,,,,,,,,,,,,,,
VIC,KINGSTON CITY,115894,ASPENDALE NORTH KINDERGARTEN,RECORDED,KIND,KINDERGARTEN,145.104312,-38.019702,115649,,,,,,,,,,,,,,,,,,,,,,,,,,,,,,,,,,,,,,,
VIC,YARRA CITY,115895,ATHERTON GARDENS KINDERGARTEN,RECORDED,KIND,KINDERGARTEN,144.979265,-37.804214,115650,,,,,,,,,,,,,,,,,,,,,,,,,,,,,,,,,,,,,,,
VIC,BOROONDARA CITY,115899,AUBURN SOUTH PRESCHOOL,RECORDED,KIND,KINDERGARTEN,145.048571,-37.840636,115654,,,,,,,,,,,,,,,,,,,,,,,,,,,,,,,,,,,,,,,
VIC,BANYULE CITY,115900,AUDREY BROOKS PRESCHOOL,RECORDED,KIND,KINDERGARTEN,145.039039,-37.749971,115655,,,,,,,,,,,,,,,,,,,,,,,,,,,,,,,,,,,,,,,
VIC,BRIMBANK CITY,115901,AURORA 3 YEAR OLD BILINGUAL KINDERGARTEN,RECORDED,KIND,KINDERGARTEN,144.816587,-37.743159,115656,,,,,,,,,,,,,,,,,,,,,,,,,,,,,,,,,,,,,,,
VIC,WHITEHORSE CITY,115902,AURORA EARLY INTERVENTION,RECORDED,KIND,KINDERGARTEN,145.150667,-37.840661,115657,,,,,,,,,,,,,,,,,,,,,,,,,,,,,,,,,,,,,,,
VIC,CASEY CITY,115904,AUTUMN PLACE KINDERGARTEN,RECORDED,KIND,KINDERGARTEN,145.238934,-37.994718,115659,,,,,,,,,,,,,,,,,,,,,,,,,,,,,,,,,,,,,,,
VIC,MOONEE VALLEY CITY,115905,AVE MARIA KINDERGARTEN,RECORDED,KIND,KINDERGARTEN,144.896433,-37.75691,115660,,,,,,,,,,,,,,,,,,,,,,,,,,,,,,,,,,,,,,,
VIC,STRATHBOGIE SHIRE,118357,AVENEL PRESCHOOL,RECORDED,KIND,KINDERGARTEN,145.237886,-36.901515,118112,,,,,,,,,,,,,,,,,,,,,,,,,,,,,,,,,,,,,,,
VIC,STRATHBOGIE SHIRE,107157,AVENEL PRESCHOOL CENTRE,RECORDED,KIND,KINDERGARTEN,145.2379182,-36.9014907,106912,,,,,,,,,,,,,,,,,,,,,,,,,,,,,,,,,,,,,,,
VIC,PYRENEES SHIRE,118358,AVOCA PRESCHOOL,RECORDED,KIND,KINDERGARTEN,143.469348,-37.090755,118113,,,,,,,,,,,,,,,,,,,,,,,,,,,,,,,,,,,,,,,
VIC,MOONEE VALLEY CITY,115906,AVONDALE HEIGHTS KINDERGARTEN,RECORDED,KIND,KINDERGARTEN,144.861919,-37.766229,115661,,,,,,,,,,,,,,,,,,,,,,,,,,,,,,,,,,,,,,,
VIC,CARDINIA SHIRE,115907,AVONSLEIGH KINDERGARTEN,RECORDED,KIND,KINDERGARTEN,145.4751,-37.914593,115662,,,,,,,,,,,,,,,,,,,,,,,,,,,,,,,,,,,,,,,
VIC,BRIMBANK CITY,123443,AYCLIFFE DRIVE KINDERGARTEN,REGISTERED,KIND,KINDERGARTEN,144.762599,-37.752673,117917,,,,,,,,,,,,,,,,,,,,,,,,,,,,,,,,,,,,,,,
VIC,MOORABOOL SHIRE,107156,BACCHUS MARSH MONTESSORI PRE-SCHOOL,RECORDED,KIND,KINDERGARTEN,144.444675,-37.6585621,106911,,,,,,,,,,,,,,,,,,,,,,,,,,,,,,,,,,,,,,,
VIC,MOORABOOL SHIRE,118361,BACCHUS MARSH MONTESSORI PRESCHOOL,RECORDED,KIND,KINDERGARTEN,144.444698,-37.65834,118116,,,,,,,,,,,,,,,,,,,,,,,,,,,,,,,,,,,,,,,
VIC,MOORABOOL SHIRE,107153,BACCHUS MARSH PRE-SCHOOL,RECORDED,KIND,KINDERGARTEN,144.4408113,-37.6739606,106908,,,,,,,,,,,,,,,,,,,,,,,,,,,,,,,,,,,,,,,
VIC,WYNDHAM CITY,115908,BACK TO BASICS EARLY LEARNING CENTRE,RECORDED,KIND,KINDERGARTEN,144.705971,-37.85405,115663,,,,,,,,,,,,,,,,,,,,,,,,,,,,,,,,,,,,,,,
VIC,FRANKSTON CITY,115909,BADEN POWELL PRESCHOOL,RECORDED,KIND,KINDERGARTEN,145.1075,-38.172502,115664,,,,,,,,,,,,,,,,,,,,,,,,,,,,,,,,,,,,,,,
VIC,YARRA RANGES SHIRE,115910,BADGER CREEK PRESCHOOL,RECORDED,KIND,KINDERGARTEN,145.531876,-37.680897,115665,,,,,,,,,,,,,,,,,,,,,,,,,,,,,,,,,,,,,,,
VIC,EAST GIPPSLAND SHIRE,118364,BAIRNSDALE CHILDCARE & KINDERGARTEN,RECORDED,KIND,KINDERGARTEN,147.629811,-37.811968,118119,,,,,,,,,,,,,,,,,,,,,,,,,,,,,,,,,,,,,,,
VIC,EAST GIPPSLAND SHIRE,118365,BAIRNSDALE EARLY LEARNING CENTRE,RECORDED,KIND,KINDERGARTEN,147.65471,-37.826903,118120,,,,,,,,,,,,,,,,,,,,,,,,,,,,,,,,,,,,,,,
VIC,EAST GIPPSLAND SHIRE,118366,BAIRNSDALE KINDERGARTEN,RECORDED,KIND,KINDERGARTEN,147.619337,-37.82253,118121,,,,,,,,,,,,,,,,,,,,,,,,,,,,,,,,,,,,,,,
VIC,EAST GIPPSLAND SHIRE,118367,BAIRNSDALE NEIGHBOURHOOD HOUSE COMMUNITY KINDERGARTEN,RECORDED,KIND,KINDERGARTEN,147.629601,-37.829166,118122,,,,,,,,,,,,,,,,,,,,,,,,,,,,,,,,,,,,,,,
VIC,EAST GIPPSLAND SHIRE,118368,BAIRNSDALE STEINER KINDERGARTEN,RECORDED,KIND,KINDERGARTEN,147.654905,-37.826938,118123,,,,,,,,,,,,,,,,,,,,,,,,,,,,,,,,,,,,,,,
VIC,BALLARAT CITY,118369,BAKERY HILL KINDERGARTEN,RECORDED,KIND,KINDERGARTEN,143.867162,-37.561036,118124,,,,,,,,,,,,,,,,,,,,,,,,,,,,,,,,,,,,,,,
VIC,GREATER SHEPPARTON CITY,118370,BALACLAVA RD PRESCHOOL,RECORDED,KIND,KINDERGARTEN,145.397684,-36.366243,118125,,,,,,,,,,,,,,,,,,,,,,,,,,,,,,,,,,,,,,,
VIC,MORNINGTON PENINSULA SHIRE,115911,BALCOMBE PRESCHOOL,RECORDED,KIND,KINDERGARTEN,145.029178,-38.272771,115666,,,,,,,,,,,,,,,,,,,,,,,,,,,,,,,,,,,,,,,
VIC,FRANKSTON CITY,115912,BALLAM PARK PRESCHOOL,RECORDED,KIND,KINDERGARTEN,145.163565,-38.148291,115667,,,,,,,,,,,,,,,,,,,,,,,,,,,,,,,,,,,,,,,
VIC,MOORABOOL SHIRE,118372,BALLAN & DISTRICT PRESCHOOL,RECORDED,KIND,KINDERGARTEN,144.223242,-37.598782,118127,,,,,,,,,,,,,,,,,,,,,,,,,,,,,,,,,,,,,,,
VIC,MOORABOOL SHIRE,118373,BALLAN CHILDCARE CENTRE,RECORDED,KIND,KINDERGARTEN,144.223577,-37.598763,118128,,,,,,,,,,,,,,,,,,,,,,,,,,,,,,,,,,,,,,,
VIC,BALLARAT CITY,118374,BALLARAT & CLARENDON COLLEGE PRESCHOOL,RECORDED,KIND,KINDERGARTEN,143.851128,-37.558606,118129,,,,,,,,,,,,,,,,,,,,,,,,,,,,,,,,,,,,,,,
VIC,BALLARAT CITY,118377,BALLARAT CHILD MINDING CENTRE,RECORDED,KIND,KINDERGARTEN,143.886283,-37.558186,118132,,,,,,,,,,,,,,,,,,,,,,,,,,,,,,,,,,,,,,,
VIC,BALLARAT CITY,118379,BALLARAT FIDELITY CLUB KINDERGARTEN,RECORDED,KIND,KINDERGARTEN,143.840019,-37.56576,118134,,,,,,,,,,,,,,,,,,,,,,,,,,,,,,,,,,,,,,,
VIC,BALLARAT CITY,118380,BALLARAT GRAMMAR EARLY LEARNING CENTRE,RECORDED,KIND,KINDERGARTEN,143.83191,-37.535643,118135,,,,,,,,,,,,,,,,,,,,,,,,,,,,,,,,,,,,,,,
VIC,BALLARAT CITY,118381,BALLARAT NORTH EARLY LEARNING CENTRE,RECORDED,KIND,KINDERGARTEN,143.864109,-37.540751,118136,,,,,,,,,,,,,,,,,,,,,,,,,,,,,,,,,,,,,,,
VIC,BALLARAT CITY,118382,BALLARAT NORTH KINDERGARTEN,RECORDED,KIND,KINDERGARTEN,143.858671,-37.550321,118137,,,,,,,,,,,,,,,,,,,,,,,,,,,,,,,,,,,,,,,
VIC,BALLARAT CITY,118383,BALLARAT RUDOLF STEINER KINDERGARTEN,RECORDED,KIND,KINDERGARTEN,143.862204,-37.640758,118138,,,,,,,,,,,,,,,,,,,,,,,,,,,,,,,,,,,,,,,
VIC,MORNINGTON PENINSULA SHIRE,115913,BALNARRING PRESCHOOL,RECORDED,KIND,KINDERGARTEN,145.125744,-38.374845,115668,,,,,,,,,,,,,,,,,,,,,,,,,,,,,,,,,,,,,,,
VIC,BOROONDARA CITY,115915,BALWYN EAST KINDERGARTEN,RECORDED,KIND,KINDERGARTEN,145.09671,-37.804397,115670,,,,,,,,,,,,,,,,,,,,,,,,,,,,,,,,,,,,,,,
VIC,BOROONDARA CITY,115916,BALWYN HAPPYLAND CHILDS CENTRE,RECORDED,KIND,KINDERGARTEN,145.081351,-37.811652,115671,,,,,,,,,,,,,,,,,,,,,,,,,,,,,,,,,,,,,,,
VIC,BAYSIDE CITY,115918,BAMBINI EARLY LEARNING CENTRE,RECORDED,KIND,KINDERGARTEN,145.001711,-37.903686,115673,,,,,,,,,,,,,,,,,,,,,,,,,,,,,,,,,,,,,,,
VIC,BAYSIDE CITY,115919,BAMBINI JUNIORS EARLY LEARNING CENTRE,RECORDED,KIND,KINDERGARTEN,145.001926,-37.913092,115674,,,,,,,,,,,,,,,,,,,,,,,,,,,,,,,,,,,,,,,
VIC,MONASH CITY,115920,BAMBOU EARLY LEARNING CENTRE,RECORDED,KIND,KINDERGARTEN,145.145023,-37.891356,115675,,,,,,,,,,,,,,,,,,,,,,,,,,,,,,,,,,,,,,,
VIC,CORANGAMITE SHIRE,118385,BANANA SPLITS CHILDCARE CENTRE,RECORDED,KIND,KINDERGARTEN,143.148856,-38.231844,118140,,,,,,,,,,,,,,,,,,,,,,,,,,,,,,,,,,,,,,,
VIC,HUME CITY,115921,BANK STREET PRESCHOOL,RECORDED,KIND,KINDERGARTEN,144.928208,-37.592897,115676,,,,,,,,,,,,,,,,,,,,,,,,,,,,,,,,,,,,,,,
VIC,GOLDEN PLAINS SHIRE,118386,BANNOCKBURN KINDERGARTEN,RECORDED,KIND,KINDERGARTEN,144.172679,-38.0508,118141,,,,,,,,,,,,,,,,,,,,,,,,,,,,,,,,,,,,,,,
VIC,GOLDEN PLAINS SHIRE,118387,BANNOCKBURN LONG DAY CARE,RECORDED,KIND,KINDERGARTEN,144.172665,-38.050728,118142,,,,,,,,,,,,,,,,,,,,,,,,,,,,,,,,,,,,,,,
VIC,FRANKSTON CITY,119693,BANYAN FIELDS CHILD AND FAMILY CENTRE,REGISTERED,KIND,KINDERGARTEN,145.1858333,-38.0938889,119297,,,,,,,,,,,,,,,,,,,,,,,,,,,,,,,,,,,,,,,
VIC,CORANGAMITE SHIRE,118388,BARANBALI CAMPERDOWN KINDERGARTEN,RECORDED,KIND,KINDERGARTEN,143.144517,-38.233809,118143,,,,,,,,,,,,,,,,,,,,,,,,,,,,,,,,,,,,,,,
VIC,BRIMBANK CITY,115924,BARBARY CRESCENT PRESCHOOL,RECORDED,KIND,KINDERGARTEN,144.792283,-37.709845,115679,,,,,,,,,,,,,,,,,,,,,,,,,,,,,,,,,,,,,,,
VIC,MAROONDAH CITY,115925,BARNGEONG RESERVE KINDERGARTEN,RECORDED,KIND,KINDERGARTEN,145.302405,-37.778218,115680,,,,,,,,,,,,,,,,,,,,,,,,,,,,,,,,,,,,,,,
VIC,WHITEHORSE CITY,115926,BARRIBURN PRESCHOOL,RECORDED,KIND,KINDERGARTEN,145.201206,-37.854147,115681,,,,,,,,,,,,,,,,,,,,,,,,,,,,,,,,,,,,,,,
VIC,MORELAND CITY,115927,BARRY BECKETT CHILDRENS CENTRE,RECORDED,KIND,KINDERGARTEN,144.980826,-37.736813,115682,,,,,,,,,,,,,,,,,,,,,,,,,,,,,,,,,,,,,,,
VIC,WHITTLESEA CITY,115928,BARRY ROAD PRESCHOOL,RECORDED,KIND,KINDERGARTEN,144.997609,-37.671501,115683,,,,,,,,,,,,,,,,,,,,,,,,,,,,,,,,,,,,,,,
VIC,HUME CITY,115929,BARRYMORE ROAD CHILDRENS CENTRE,RECORDED,KIND,KINDERGARTEN,144.893411,-37.650824,115684,,,,,,,,,,,,,,,,,,,,,,,,,,,,,,,,,,,,,,,
VIC,GREATER GEELONG CITY,115930,BARWON HEADS PRE-SCHOOL,RECORDED,KIND,KINDERGARTEN,144.490772,-38.281163,115685,,,,,,,,,,,,,,,,,,,,,,,,,,,,,,,,,,,,,,,
VIC,BASS COAST SHIRE,118390,BASS COAST CHILDRENS CENTRE,RECORDED,KIND,KINDERGARTEN,145.584767,-38.590257,118145,,,,,,,,,,,,,,,,,,,,,,,,,,,,,,,,,,,,,,,
VIC,BASS COAST SHIRE,118391,BASS VALLEY OCCASIONAL CHILDCARE,RECORDED,KIND,KINDERGARTEN,145.465273,-38.484655,118146,,,,,,,,,,,,,,,,,,,,,,,,,,,,,,,,,,,,,,,
VIC,DAREBIN CITY,115931,BATMAN PARK KINDERGARTEN,RECORDED,KIND,KINDERGARTEN,144.9935611,-37.7684389,115686,,,,,,,,,,,,,,,,,,,,,,,,,,,,,,,,,,,,,,,
VIC,MORNINGTON PENINSULA SHIRE,115932,BAXTER CHILDCARE CENTRE,RECORDED,KIND,KINDERGARTEN,145.159658,-38.195777,115687,,,,,,,,,,,,,,,,,,,,,,,,,,,,,,,,,,,,,,,
VIC,MORNINGTON PENINSULA SHIRE,115933,BAXTER PRESCHOOL,RECORDED,KIND,KINDERGARTEN,145.152706,-38.197479,115688,,,,,,,,,,,,,,,,,,,,,,,,,,,,,,,,,,,,,,,
VIC,GREATER GEELONG CITY,115934,BAY CITY EARLY LEARNING CENTRE,RECORDED,KIND,KINDERGARTEN,144.359551,-38.14559,115689,,,,,,,,,,,,,,,,,,,,,,,,,,,,,,,,,,,,,,,
VIC,GREATER GEELONG CITY,115935,BAY CITY MONTESSORI PRESCHOOL,RECORDED,KIND,KINDERGARTEN,144.35861,-38.15902,115690,,,,,,,,,,,,,,,,,,,,,,,,,,,,,,,,,,,,,,,
VIC,HOBSONS BAY CITY,115936,BAY KIDS,RECORDED,KIND,KINDERGARTEN,144.855813,-37.839982,115691,,,,,,,,,,,,,,,,,,,,,,,,,,,,,,,,,,,,,,,
VIC,CARDINIA SHIRE,115937,BAYLES KINDERGARTEN,RECORDED,KIND,KINDERGARTEN,145.569575,-38.082677,115692,,,,,,,,,,,,,,,,,,,,,,,,,,,,,,,,,,,,,,,
VIC,FRANKSTON CITY,115938,BAYPORT KINDERGARTEN,RECORDED,KIND,KINDERGARTEN,145.19237,-38.162636,115693,,,,,,,,,,,,,,,,,,,,,,,,,,,,,,,,,,,,,,,
VIC,FRANKSTON CITY,115939,BAYSIDE CHILDCARE,RECORDED,KIND,KINDERGARTEN,145.134087,-38.139519,115694,,,,,,,,,,,,,,,,,,,,,,,,,,,,,,,,,,,,,,,
VIC,KNOX CITY,115940,BAYSWATER EARLY LEARNING CENTRE,RECORDED,KIND,KINDERGARTEN,145.258665,-37.842418,115695,,,,,,,,,,,,,,,,,,,,,,,,,,,,,,,,,,,,,,,
VIC,MAROONDAH CITY,115941,BAYSWATER NORTH KINDERGARTEN,RECORDED,KIND,KINDERGARTEN,145.300228,-37.829381,115696,,,,,,,,,,,,,,,,,,,,,,,,,,,,,,,,,,,,,,,
VIC,FRANKSTON CITY,115942,BAYVIEW PRESCHOOL,RECORDED,KIND,KINDERGARTEN,145.157296,-38.155248,115697,,,,,,,,,,,,,,,,,,,,,,,,,,,,,,,,,,,,,,,
VIC,GREATER GEELONG CITY,115945,BEACON POINT PRESCHOOL,RECORDED,KIND,KINDERGARTEN,144.575189,-38.148669,115700,,,,,,,,,,,,,,,,,,,,,,,,,,,,,,,,,,,,,,,
VIC,WHITEHORSE CITY,115946,BEACON STREET CHILDRENS CENTRE,RECORDED,KIND,KINDERGARTEN,145.178676,-37.855635,115701,,,,,,,,,,,,,,,,,,,,,,,,,,,,,,,,,,,,,,,
VIC,CARDINIA SHIRE,115947,BEACONHILL DRIVE CHILDRENS CENTRE,RECORDED,KIND,KINDERGARTEN,145.380802,-38.051524,115702,,,,,,,,,,,,,,,,,,,,,,,,,,,,,,,,,,,,,,,
VIC,CARDINIA SHIRE,115948,BEACONSFIELD CHILDRENS HUB PANORAMA ESTATE,RECORDED,KIND,KINDERGARTEN,145.385432,-38.056298,115703,,,,,,,,,,,,,,,,,,,,,,,,,,,,,,,,,,,,,,,
VIC,CARDINIA SHIRE,115949,BEACONSFIELD COMMUNITY COMPLEX OCCASIONAL CARE,RECORDED,KIND,KINDERGARTEN,145.380211,-38.052283,115704,,,,,,,,,,,,,,,,,,,,,,,,,,,,,,,,,,,,,,,
VIC,CARDINIA SHIRE,115951,BEACONSFIELD KINDERGARTEN,RECORDED,KIND,KINDERGARTEN,145.367301,-38.045818,115706,,,,,,,,,,,,,,,,,,,,,,,,,,,,,,,,,,,,,,,
VIC,CARDINIA SHIRE,115952,BEACONSFIELD KINDERGARTEN-ONEIL ROAD,RECORDED,KIND,KINDERGARTEN,145.380211,-38.052283,115707,,,,,,,,,,,,,,,,,,,,,,,,,,,,,,,,,,,,,,,
VIC,WARRNAMBOOL CITY,107174,BEAMISH STREET KINDERGARTEN,RECORDED,KIND,KINDERGARTEN,142.4677651,-38.3654024,106929,,,,,,,,,,,,,,,,,,,,,,,,,,,,,,,,,,,,,,,
VIC,WARRNAMBOOL CITY,118392,BEAMISH STREET KINDERGARTEN,RECORDED,KIND,KINDERGARTEN,142.467864,-38.365265,118147,,,,,,,,,,,,,,,,,,,,,,,,,,,,,,,,,,,,,,,
VIC,MOONEE VALLEY CITY,115953,BEAVER STREET KINDERGARTEN,RECORDED,KIND,KINDERGARTEN,144.901936,-37.757054,115708,,,,,,,,,,,,,,,,,,,,,,,,,,,,,,,,,,,,,,,
VIC,INDIGO SHIRE,118394,BEECHWORTH KINDERGARTEN INC.,RECORDED,KIND,KINDERGARTEN,146.695426,-36.371545,118149,,,,,,,,,,,,,,,,,,,,,,,,,,,,,,,,,,,,,,,
VIC,INDIGO SHIRE,118395,BEECHWORTH MONTESSORI CHILDRENS GROUP,RECORDED,KIND,KINDERGARTEN,146.695916,-36.368155,118150,,,,,,,,,,,,,,,,,,,,,,,,,,,,,,,,,,,,,,,
VIC,MORNINGTON PENINSULA SHIRE,115955,BELEURA HILL PRESCHOOL,RECORDED,KIND,KINDERGARTEN,145.053759,-38.220946,115710,,,,,,,,,,,,,,,,,,,,,,,,,,,,,,,,,,,,,,,
VIC,BOROONDARA CITY,115956,BELFORD OAKS COMMUNITY CHILDRENS CENTRE,RECORDED,KIND,KINDERGARTEN,145.046311,-37.800651,115711,,,,,,,,,,,,,,,,,,,,,,,,,,,,,,,,,,,,,,,
VIC,WODONGA CITY,118396,BELGRADE AVENUE PRESCHOOL,RECORDED,KIND,KINDERGARTEN,146.903921,-36.128239,118151,,,,,,,,,,,,,,,,,,,,,,,,,,,,,,,,,,,,,,,
VIC,YARRA RANGES SHIRE,115957,BELGRAVE PRESCHOOL,RECORDED,KIND,KINDERGARTEN,145.354772,-37.910746,115712,,,,,,,,,,,,,,,,,,,,,,,,,,,,,,,,,,,,,,,
VIC,GREATER GEELONG CITY,115959,BELL PARK KINDERGARTEN,RECORDED,KIND,KINDERGARTEN,144.336877,-38.106112,115714,,,,,,,,,,,,,,,,,,,,,,,,,,,,,,,,,,,,,,,
VIC,GREATER GEELONG CITY,115960,BELL POST HILL KINDERGARTEN,RECORDED,KIND,KINDERGARTEN,144.3276,-38.100362,115715,,,,,,,,,,,,,,,,,,,,,,,,,,,,,,,,,,,,,,,
VIC,DAREBIN CITY,115961,BELL STREET EARLY LEARNING CENTRE,RECORDED,KIND,KINDERGARTEN,144.990042,-37.744213,115716,,,,,,,,,,,,,,,,,,,,,,,,,,,,,,,,,,,,,,,
VIC,BRIMBANK CITY,115962,BELLA BAMBINI PRE-SCHOOL AND DAYCARE -ST ALBANS,RECORDED,KIND,KINDERGARTEN,144.801712,-37.743483,115717,,,,,,,,,,,,,,,,,,,,,,,,,,,,,,,,,,,,,,,
VIC,GREATER GEELONG CITY,115963,BELLARINE CHILDRENS CENTRE,RECORDED,KIND,KINDERGARTEN,144.4030558,-38.1746585,115718,,,,,,,,,,,,,,,,,,,,,,,,,,,,,,,,,,,,,,,
VIC,HUME CITY,115964,BELLBRAE PRESCHOOL,RECORDED,KIND,KINDERGARTEN,144.916677,-37.657782,115719,,,,,,,,,,,,,,,,,,,,,,,,,,,,,,,,,,,,,,,
VIC,MORELAND CITY,115965,BELLE VUE PARK KINDERGARTEN,RECORDED,KIND,KINDERGARTEN,144.943161,-37.701123,115720,,,,,,,,,,,,,,,,,,,,,,,,,,,,,,,,,,,,,,,
VIC,MELTON CITY,115966,BELLEVUE HILL PRESCHOOL,RECORDED,KIND,KINDERGARTEN,144.739231,-37.688815,115721,,,,,,,,,,,,,,,,,,,,,,,,,,,,,,,,,,,,,,,
VIC,BOROONDARA CITY,115967,BELLEVUE KINDERGARTEN,RECORDED,KIND,KINDERGARTEN,145.07427,-37.788169,115722,,,,,,,,,,,,,,,,,,,,,,,,,,,,,,,,,,,,,,,
VIC,GREATER GEELONG CITY,115969,BELLEVUE PRESCHOOL,RECORDED,KIND,KINDERGARTEN,144.3165824,-38.1718002,115724,,,,,,,,,,,,,,,,,,,,,,,,,,,,,,,,,,,,,,,
VIC,GREATER GEELONG CITY,115970,BELLNORE DRIVE EARLY LEARNING CENTRE,RECORDED,KIND,KINDERGARTEN,144.338065,-38.08938,115725,,,,,,,,,,,,,,,,,,,,,,,,,,,,,,,,,,,,,,,
VIC,GREATER GEELONG CITY,115971,BELMONT COMMUNITY KINDERGARTEN,RECORDED,KIND,KINDERGARTEN,144.340838,-38.185271,115726,,,,,,,,,,,,,,,,,,,,,,,,,,,,,,,,,,,,,,,
VIC,FRANKSTON CITY,115972,BELVEDERE PARK PRESCHOOL,RECORDED,KIND,KINDERGARTEN,145.148181,-38.107457,115727,,,,,,,,,,,,,,,,,,,,,,,,,,,,,,,,,,,,,,,
VIC,KNOX CITY,115973,BENA ANGLISS KINDERGARTEN,RECORDED,KIND,KINDERGARTEN,145.297199,-37.884482,115728,,,,,,,,,,,,,,,,,,,,,,,,,,,,,,,,,,,,,,,
VIC,BENALLA RURAL CITY,118397,BENALLA KIDS COTTAGE,RECORDED,KIND,KINDERGARTEN,145.972979,-36.556132,118152,,,,,,,,,,,,,,,,,,,,,,,,,,,,,,,,,,,,,,,
VIC,EAST GIPPSLAND SHIRE,118398,BENAMBRA EARLY CHILDHOOD DEVELOPMENT CENTRE,RECORDED,KIND,KINDERGARTEN,147.703521,-36.953943,118153,,,,,,,,,,,,,,,,,,,,,,,,,,,,,,,,,,,,,,,
VIC,GREATER BENDIGO CITY,1918,BENDIGO DEAF CHILDRENS SCHOOL,REGISTERED,KIND,KINDERGARTEN,144.2768056,-36.7545833,10461,,,,,,,,,,,,,,,,,,,,,,,,,,,,,,,,,,,,,,,
VIC,GREATER BENDIGO CITY,118401,BENDIGO PRESCHOOL,RECORDED,KIND,KINDERGARTEN,144.271471,-36.76383,118156,,,,,,,,,,,,,,,,,,,,,,,,,,,,,,,,,,,,,,,
VIC,HORSHAM RURAL CITY,118403,BENNETT ROAD KINDERGARTEN,RECORDED,KIND,KINDERGARTEN,142.190939,-36.714255,118158,,,,,,,,,,,,,,,,,,,,,,,,,,,,,,,,,,,,,,,
VIC,GLEN EIRA CITY,115975,BENTLEIGH EAST PRESCHOOL,RECORDED,KIND,KINDERGARTEN,145.059995,-37.918264,115730,,,,,,,,,,,,,,,,,,,,,,,,,,,,,,,,,,,,,,,
VIC,GLEN EIRA CITY,115977,BENTLEIGH PRE-SCHOOL,RECORDED,KIND,KINDERGARTEN,145.041566,-37.920437,115732,,,,,,,,,,,,,,,,,,,,,,,,,,,,,,,,,,,,,,,
VIC,GLEN EIRA CITY,115978,BENTLEIGH WEST KINDERGARTEN,RECORDED,KIND,KINDERGARTEN,145.030933,-37.924981,115733,,,,,,,,,,,,,,,,,,,,,,,,,,,,,,,,,,,,,,,
VIC,WHITEHORSE CITY,115981,BENWERRIN PRESCHOOL,RECORDED,KIND,KINDERGARTEN,145.141418,-37.851565,115736,,,,,,,,,,,,,,,,,,,,,,,,,,,,,,,,,,,,,,,
VIC,BENALLA RURAL CITY,118404,BERNARD BRIGGS KINDERGARTEN,RECORDED,KIND,KINDERGARTEN,145.98905,-36.548502,118159,,,,,,,,,,,,,,,,,,,,,,,,,,,,,,,,,,,,,,,
VIC,KNOX CITY,115982,BERRABRI PRESCHOOL,RECORDED,KIND,KINDERGARTEN,145.219988,-37.893631,115737,,,,,,,,,,,,,,,,,,,,,,,,,,,,,,,,,,,,,,,
VIC,TOWONG SHIRE,118406,BERRINGA KINDERGARTEN,RECORDED,KIND,KINDERGARTEN,147.062363,-36.099473,118161,,,,,,,,,,,,,,,,,,,,,,,,,,,,,,,,,,,,,,,
VIC,CASEY CITY,115983,BERWICK EARLY LEARNING CENTRE,RECORDED,KIND,KINDERGARTEN,145.338589,-38.056694,115738,,,,,,,,,,,,,,,,,,,,,,,,,,,,,,,,,,,,,,,
VIC,CASEY CITY,115984,BERWICK KIDS EDUCATION CENTRE,RECORDED,KIND,KINDERGARTEN,145.339478,-38.069509,115739,,,,,,,,,,,,,,,,,,,,,,,,,,,,,,,,,,,,,,,
VIC,CASEY CITY,115985,BERWICK KINDERGARTEN,RECORDED,KIND,KINDERGARTEN,145.351766,-38.029963,115740,,,,,,,,,,,,,,,,,,,,,,,,,,,,,,,,,,,,,,,
VIC,MONASH CITY,115988,BESTCHANCE CHILDRENS CENTRE,RECORDED,KIND,KINDERGARTEN,145.158755,-37.902971,115743,,,,,,,,,,,,,,,,,,,,,,,,,,,,,,,,,,,,,,,
VIC,YARRIAMBIACK SHIRE,118407,BEULAH OUTREACH PRESCHOOL,RECORDED,KIND,KINDERGARTEN,142.417999,-35.944834,118162,,,,,,,,,,,,,,,,,,,,,,,,,,,,,,,,,,,,,,,
VIC,MANNINGHAM CITY,115989,BEVERLEY HILLS KINDERGARTEN,RECORDED,KIND,KINDERGARTEN,145.154131,-37.794671,115744,,,,,,,,,,,,,,,,,,,,,,,,,,,,,,,,,,,,,,,
VIC,WHITEHORSE CITY,115990,BIALA EARLY INTERVENTION CENTRE,RECORDED,KIND,KINDERGARTEN,145.128787,-37.823816,115745,,,,,,,,,,,,,,,,,,,,,,,,,,,,,,,,,,,,,,,
VIC,BOROONDARA CITY,115992,BIALIK COLLEGE EARLY LEARNING CENTRE,RECORDED,KIND,KINDERGARTEN,145.045063,-37.842252,115747,,,,,,,,,,,,,,,,,,,,,,,,,,,,,,,,,,,,,,,
VIC,GREATER DANDENONG CITY,115993,BILBUNGRA KINDERGARTEN,RECORDED,KIND,KINDERGARTEN,145.160426,-37.987835,115748,,,,,,,,,,,,,,,,,,,,,,,,,,,,,,,,,,,,,,,
VIC,MARIBYRNONG CITY,115994,BILLAN FAMILY DAY CARE,RECORDED,KIND,KINDERGARTEN,144.861518,-37.792414,115749,,,,,,,,,,,,,,,,,,,,,,,,,,,,,,,,,,,,,,,
VIC,KNOX CITY,115995,BILLOO PARK KINDERGARTEN,RECORDED,KIND,KINDERGARTEN,145.233067,-37.862647,115750,,,,,,,,,,,,,,,,,,,,,,,,,,,,,,,,,,,,,,,
VIC,BOROONDARA CITY,115996,BILLY LIDS OCCASIONAL CARE,RECORDED,KIND,KINDERGARTEN,145.034122,-37.822069,115751,,,,,,,,,,,,,,,,,,,,,,,,,,,,,,,,,,,,,,,
VIC,YARRA RANGES SHIRE,115997,BIMBADEEN PRESCHOOL,RECORDED,KIND,KINDERGARTEN,145.325031,-37.773381,115752,,,,,,,,,,,,,,,,,,,,,,,,,,,,,,,,,,,,,,,
VIC,MOONEE VALLEY CITY,115998,BIMBI DAY CARE,RECORDED,KIND,KINDERGARTEN,144.881273,-37.724899,115753,,,,,,,,,,,,,,,,,,,,,,,,,,,,,,,,,,,,,,,
VIC,KNOX CITY,119784,BIRCH STREET CHILDREN AND FAMILY CENTRE,REGISTERED,KIND,KINDERGARTEN,145.2583333,-37.8430556,119386,,,,,,,,,,,,,,,,,,,,,,,,,,,,,,,,,,,,,,,
VIC,BULOKE SHIRE,118409,BIRCHIP & DISTRICT PRESCHOOL,RECORDED,KIND,KINDERGARTEN,142.918023,-35.981286,118164,,,,,,,,,,,,,,,,,,,,,,,,,,,,,,,,,,,,,,,
VIC,WHITEHORSE CITY,116001,BIRRALEE PRESCHOOL,RECORDED,KIND,KINDERGARTEN,145.172665,-37.859156,115756,,,,,,,,,,,,,,,,,,,,,,,,,,,,,,,,,,,,,,,
VIC,COLAC OTWAY SHIRE,118411,BIRREGURRA PRESCHOOL CENTRE,RECORDED,KIND,KINDERGARTEN,143.782076,-38.336077,118166,,,,,,,,,,,,,,,,,,,,,,,,,,,,,,,,,,,,,,,
VIC,MORNINGTON PENINSULA SHIRE,116002,BITTERN PRESCHOOL,RECORDED,KIND,KINDERGARTEN,145.176747,-38.335659,115757,,,,,,,,,,,,,,,,,,,,,,,,,,,,,,,,,,,,,,,
VIC,EAST GIPPSLAND SHIRE,118412,BJS EARLY LEARNING CENTRE,RECORDED,KIND,KINDERGARTEN,147.610079,-37.82292,118167,,,,,,,,,,,,,,,,,,,,,,,,,,,,,,,,,,,,,,,
VIC,CASEY CITY,116003,BKS EARLY LEARNING CENTRE & KINDERGRATEN,RECORDED,KIND,KINDERGARTEN,145.33432,-38.044652,115758,,,,,,,,,,,,,,,,,,,,,,,,,,,,,,,,,,,,,,,
VIC,BALLARAT CITY,118413,BLACK HILL KINDERGARTEN,RECORDED,KIND,KINDERGARTEN,143.869473,-37.548494,118168,,,,,,,,,,,,,,,,,,,,,,,,,,,,,,,,,,,,,,,
VIC,BAYSIDE CITY,116004,BLACK ROCK KINDERGARTEN,RECORDED,KIND,KINDERGARTEN,145.016618,-37.972097,115759,,,,,,,,,,,,,,,,,,,,,,,,,,,,,,,,,,,,,,,
VIC,WHITEHORSE CITY,116005,BLACKBURN CHILDRENS SERVICES CENTRE,RECORDED,KIND,KINDERGARTEN,145.15366,-37.82101,115760,,,,,,,,,,,,,,,,,,,,,,,,,,,,,,,,,,,,,,,
VIC,WHITEHORSE CITY,116006,BLACKBURN EARLY CHILDHOOD INTERVENTION SERVICE,RECORDED,KIND,KINDERGARTEN,145.134039,-37.847574,115761,,,,,,,,,,,,,,,,,,,,,,,,,,,,,,,,,,,,,,,
VIC,WHITEHORSE CITY,116007,BLACKBURN ROAD PRESCHOOL,RECORDED,KIND,KINDERGARTEN,145.152298,-37.822736,115762,,,,,,,,,,,,,,,,,,,,,,,,,,,,,,,,,,,,,,,
VIC,MORNINGTON PENINSULA SHIRE,116008,BLACKSCAMP PRESCHOOL,RECORDED,KIND,KINDERGARTEN,145.170662,-38.231048,115763,,,,,,,,,,,,,,,,,,,,,,,,,,,,,,,,,,,,,,,
VIC,DAREBIN CITY,116010,BLAKE STREET KINDERGARTEN,RECORDED,KIND,KINDERGARTEN,145.031372,-37.731522,115765,,,,,,,,,,,,,,,,,,,,,,,,,,,,,,,,,,,,,,,
VIC,BOROONDARA CITY,116012,BLOOM EARLY LEARNING CENTRE,RECORDED,KIND,KINDERGARTEN,145.068658,-37.847997,115767,,,,,,,,,,,,,,,,,,,,,,,,,,,,,,,,,,,,,,,
VIC,MONASH CITY,116013,BLOOM EARLY LEARNING CENTRE ASHWOOD,RECORDED,KIND,KINDERGARTEN,145.09705,-37.866438,115768,,,,,,,,,,,,,,,,,,,,,,,,,,,,,,,,,,,,,,,
VIC,WHITTLESEA CITY,116014,BLOSSOM PARK KINDERGARTEN,RECORDED,KIND,KINDERGARTEN,145.076378,-37.670848,115769,,,,,,,,,,,,,,,,,,,,,,,,,,,,,,,,,,,,,,,
VIC,HUME CITY,116016,BLUEBIRD WAY CHILD AND FAMILY CENTRE,RECORDED,KIND,KINDERGARTEN,144.923227,-37.616162,115771,,,,,,,,,,,,,,,,,,,,,,,,,,,,,,,,,,,,,,,
VIC,MORELAND CITY,116017,BLYTH STREET EARLY LEARNING CENTRE,RECORDED,KIND,KINDERGARTEN,144.967742,-37.766224,115772,,,,,,,,,,,,,,,,,,,,,,,,,,,,,,,,,,,,,,,
VIC,KINGSTON CITY,116018,BONBEACH PRESCHOOL,RECORDED,KIND,KINDERGARTEN,145.125574,-38.067075,115773,,,,,,,,,,,,,,,,,,,,,,,,,,,,,,,,,,,,,,,
VIC,GREATER GEELONG CITY,116019,BOND STREET KINDERGARTEN,RECORDED,KIND,KINDERGARTEN,144.348428,-38.156566,115774,,,,,,,,,,,,,,,,,,,,,,,,,,,,,,,,,,,,,,,
VIC,BAYSIDE CITY,116020,BONKERS BEAT,RECORDED,KIND,KINDERGARTEN,145.011359,-37.908656,115775,,,,,,,,,,,,,,,,,,,,,,,,,,,,,,,,,,,,,,,
VIC,KINGSTON CITY,116021,BONKERS BEAT MUSIC KINDER & CHILDCARE ASPENDALE,RECORDED,KIND,KINDERGARTEN,145.10092,-38.022139,115776,,,,,,,,,,,,,,,,,,,,,,,,,,,,,,,,,,,,,,,
VIC,GREATER BENDIGO CITY,118415,BOOKS AND BLOCKS CHILDCARE,RECORDED,KIND,KINDERGARTEN,144.298985,-36.78104,118170,,,,,,,,,,,,,,,,,,,,,,,,,,,,,,,,,,,,,,,
VIC,LATROBE CITY,118416,BOOLARRA KINDERGARTEN,RECORDED,KIND,KINDERGARTEN,146.272516,-38.381556,118171,,,,,,,,,,,,,,,,,,,,,,,,,,,,,,,,,,,,,,,
VIC,LODDON SHIRE,118417,BOORT PRESCHOOL,RECORDED,KIND,KINDERGARTEN,143.726443,-36.116483,118172,,,,,,,,,,,,,,,,,,,,,,,,,,,,,,,,,,,,,,,
VIC,YARRA CITY,116023,BOROONDARA KINDERGARTEN,RECORDED,KIND,KINDERGARTEN,144.999891,-37.811161,115778,,,,,,,,,,,,,,,,,,,,,,,,,,,,,,,,,,,,,,,
VIC,BOROONDARA CITY,116024,BOROONDARA PRESCHOOL,RECORDED,KIND,KINDERGARTEN,145.087245,-37.786418,115779,,,,,,,,,,,,,,,,,,,,,,,,,,,,,,,,,,,,,,,
VIC,BOROONDARA CITY,116025,BOROONDARA SPORTS COMPLEX CHILDCARE SERVICE,RECORDED,KIND,KINDERGARTEN,145.085511,-37.803618,115780,,,,,,,,,,,,,,,,,,,,,,,,,,,,,,,,,,,,,,,
VIC,FRANKSTON CITY,116027,BOTANY PARK PRESCHOOL,RECORDED,KIND,KINDERGARTEN,145.174891,-38.110951,115782,,,,,,,,,,,,,,,,,,,,,,,,,,,,,,,,,,,,,,,
VIC,MONASH CITY,116028,BOULEVARD EARLY LEARNING CENTRE,RECORDED,KIND,KINDERGARTEN,145.165608,-37.868512,115783,,,,,,,,,,,,,,,,,,,,,,,,,,,,,,,,,,,,,,,
VIC,BAYSIDE CITY,116029,BOUTIQUE BUBS EARLY EDUCATION & KINDERGARTEN,RECORDED,KIND,KINDERGARTEN,145.022666,-37.940734,115784,,,,,,,,,,,,,,,,,,,,,,,,,,,,,,,,,,,,,,,
VIC,BAW BAW SHIRE,118418,BOWEN PARK KINDERGARTEN,RECORDED,KIND,KINDERGARTEN,145.929626,-38.145434,118173,,,,,,,,,,,,,,,,,,,,,,,,,,,,,,,,,,,,,,,
VIC,CASEY CITY,116031,BOWEN STREET PRESCHOOL,RECORDED,KIND,KINDERGARTEN,145.286253,-38.099546,115786,,,,,,,,,,,,,,,,,,,,,,,,,,,,,,,,,,,,,,,
VIC,FRANKSTON CITY,116032,BOWERBIRD KINDERGARTEN,RECORDED,KIND,KINDERGARTEN,145.181484,-38.105514,115787,,,,,,,,,,,,,,,,,,,,,,,,,,,,,,,,,,,,,,,
VIC,WHITEHORSE CITY,116034,BOX HILL NORTH PRIMARY KINDERGARTEN,RECORDED,KIND,KINDERGARTEN,145.123359,-37.800625,115789,,,,,,,,,,,,,,,,,,,,,,,,,,,,,,,,,,,,,,,
VIC,HUME CITY,116036,BRADFORD AVENUE PRESCHOOL,RECORDED,KIND,KINDERGARTEN,144.887336,-37.639287,115791,,,,,,,,,,,,,,,,,,,,,,,,,,,,,,,,,,,,,,,
VIC,GLEN EIRA CITY,116037,BRADY ROAD KINDERGARTEN,RECORDED,KIND,KINDERGARTEN,145.066669,-37.929287,115792,,,,,,,,,,,,,,,,,,,,,,,,,,,,,,,,,,,,,,,
VIC,MONASH CITY,116038,BRANDON PARK CHILDRENS CENTRE,RECORDED,KIND,KINDERGARTEN,145.164698,-37.903163,115793,,,,,,,,,,,,,,,,,,,,,,,,,,,,,,,,,,,,,,,
VIC,MONASH CITY,116039,BRANDON PARK KINDERGARTEN,RECORDED,KIND,KINDERGARTEN,145.175972,-37.925686,115794,,,,,,,,,,,,,,,,,,,,,,,,,,,,,,,,,,,,,,,
VIC,GREATER GEELONG CITY,116040,BREAKWATER KINDERGARTEN,RECORDED,KIND,KINDERGARTEN,144.380436,-38.176014,115795,,,,,,,,,,,,,,,,,,,,,,,,,,,,,,,,,,,,,,,
VIC,MARIBYRNONG CITY,115668,BRENBEAL CHILDRENS CENTRE,RECORDED,KIND,KINDERGARTEN,144.888188,-37.793477,115423,,,,,,,,,,,,,,,,,,,,,,,,,,,,,,,,,,,,,,,
VIC,MORELAND CITY,116042,BRENTWOOD KINDERGARTEN,RECORDED,KIND,KINDERGARTEN,144.931657,-37.747405,115797,,,,,,,,,,,,,,,,,,,,,,,,,,,,,,,,,,,,,,,
VIC,MONASH CITY,116041,BRENTWOOD KINDERGARTEN,RECORDED,KIND,KINDERGARTEN,145.175229,-37.897245,115796,,,,,,,,,,,,,,,,,,,,,,,,,,,,,,,,,,,,,,,
VIC,CASEY CITY,116043,BRENTWOOD PARK BERWICK KINDERGARTEN,RECORDED,KIND,KINDERGARTEN,145.34721,-38.051404,115798,,,,,,,,,,,,,,,,,,,,,,,,,,,,,,,,,,,,,,,
VIC,MAROONDAH CITY,116044,BRENTWOOD PARK KINDERGARTEN,RECORDED,KIND,KINDERGARTEN,145.299882,-37.79096,115799,,,,,,,,,,,,,,,,,,,,,,,,,,,,,,,,,,,,,,,
VIC,WELLINGTON SHIRE,118419,BRIAGOLONG KINDERGARTEN & OCCASIONAL CARE CENTRE,RECORDED,KIND,KINDERGARTEN,147.071827,-37.842925,118174,,,,,,,,,,,,,,,,,,,,,,,,,,,,,,,,,,,,,,,
VIC,BANYULE CITY,116045,BRIAR HILL PRESCHOOL,RECORDED,KIND,KINDERGARTEN,145.126062,-37.703294,115800,,,,,,,,,,,,,,,,,,,,,,,,,,,,,,,,,,,,,,,
VIC,YARRA CITY,116046,BRIDGE ROAD EARLY LEARNING CENTRE,RECORDED,KIND,KINDERGARTEN,145.011799,-37.820087,115801,,,,,,,,,,,,,,,,,,,,,,,,,,,,,,,,,,,,,,,
VIC,CASEY CITY,116047,BRIDGEWATER KINDERGARTEN,RECORDED,KIND,KINDERGARTEN,145.347197,-38.065698,115802,,,,,,,,,,,,,,,,,,,,,,,,,,,,,,,,,,,,,,,
VIC,MOIRA SHIRE,118420,BRIDIE KNIGHT CHILDCARE,RECORDED,KIND,KINDERGARTEN,145.444071,-36.090204,118175,,,,,,,,,,,,,,,,,,,,,,,,,,,,,,,,,,,,,,,
VIC,ALPINE SHIRE,118421,BRIGHT & DISTRICT KINDERGARTEN,RECORDED,KIND,KINDERGARTEN,146.965805,-36.726463,118176,,,,,,,,,,,,,,,,,,,,,,,,,,,,,,,,,,,,,,,
VIC,KNOX CITY,116049,BRIGHT HORIZON AUSTRALIA CHILDCARE WANTIRNA,RECORDED,KIND,KINDERGARTEN,145.245476,-37.853694,115804,,,,,,,,,,,,,,,,,,,,,,,,,,,,,,,,,,,,,,,
VIC,MAROONDAH CITY,116050,BRIGHT HORIZONS AUSTRALIA CHILDCARE CROYDON NORTH,RECORDED,KIND,KINDERGARTEN,145.276341,-37.771373,115805,,,,,,,,,,,,,,,,,,,,,,,,,,,,,,,,,,,,,,,
VIC,GLEN EIRA CITY,116544,BRIGHT HORIZONS AUSTRALIA CHILDCARE ELSTERNWICK,RECORDED,KIND,KINDERGARTEN,145.001221,-37.886613,116299,,,,,,,,,,,,,,,,,,,,,,,,,,,,,,,,,,,,,,,
VIC,WODONGA CITY,118422,BRIGHT HORIZONS AUSTRALIA CHILDCARE WODONGA,RECORDED,KIND,KINDERGARTEN,146.887372,-36.117187,118177,,,,,,,,,,,,,,,,,,,,,,,,,,,,,,,,,,,,,,,
VIC,MOIRA SHIRE,118423,BRIGHT HORIZONS AUSTRALIA CHILDCARE YARRAWONGA,RECORDED,KIND,KINDERGARTEN,146.006447,-36.014867,118178,,,,,,,,,,,,,,,,,,,,,,,,,,,,,,,,,,,,,,,
VIC,HOBSONS BAY CITY,116545,BRIGHT STEPS EDUCATIONAL CHILDCARE & KINDERGARTEN,RECORDED,KIND,KINDERGARTEN,144.876168,-37.833946,116300,,,,,,,,,,,,,,,,,,,,,,,,,,,,,,,,,,,,,,,
VIC,BAYSIDE CITY,116546,BRIGHTON BAPTIST KINDERGARTEN,RECORDED,KIND,KINDERGARTEN,144.997588,-37.905035,116301,,,,,,,,,,,,,,,,,,,,,,,,,,,,,,,,,,,,,,,
VIC,BAYSIDE CITY,116548,BRIGHTON CHILDCARE AND KINDERGARTEN,RECORDED,KIND,KINDERGARTEN,144.991729,-37.910783,116303,,,,,,,,,,,,,,,,,,,,,,,,,,,,,,,,,,,,,,,
VIC,BAYSIDE CITY,116549,BRIGHTON GRAMMAR KINDERGARTEN,RECORDED,KIND,KINDERGARTEN,144.991376,-37.909274,116304,,,,,,,,,,,,,,,,,,,,,,,,,,,,,,,,,,,,,,,
VIC,BAYSIDE CITY,116550,BRIGHTON MONTESSORI SCHOOL,RECORDED,KIND,KINDERGARTEN,145.017511,-37.911752,116305,,,,,,,,,,,,,,,,,,,,,,,,,,,,,,,,,,,,,,,
VIC,GREATER BENDIGO CITY,118424,BRIT BEGINNERS CHILDRENS CENTRE,RECORDED,KIND,KINDERGARTEN,144.282893,-36.757142,118179,,,,,,,,,,,,,,,,,,,,,,,,,,,,,,,,,,,,,,,
VIC,HUME CITY,116556,BROADMEADOWS PRESCHOOL,RECORDED,KIND,KINDERGARTEN,144.928584,-37.680365,116311,,,,,,,,,,,,,,,,,,,,,,,,,,,,,,,,,,,,,,,
VIC,MELTON CITY,116557,BROOKFIELD CHILDRENS CENTRE,RECORDED,KIND,KINDERGARTEN,144.564044,-37.694478,116312,,,,,,,,,,,,,,,,,,,,,,,,,,,,,,,,,,,,,,,
VIC,MELTON CITY,116558,BROOKFIELD PRESCHOOL,RECORDED,KIND,KINDERGARTEN,144.566526,-37.708029,116313,,,,,,,,,,,,,,,,,,,,,,,,,,,,,,,,,,,,,,,
VIC,MELTON CITY,116559,BROOKSIDE EARLY LEARNING CENTRE,RECORDED,KIND,KINDERGARTEN,144.73661,-37.746625,116314,,,,,,,,,,,,,,,,,,,,,,,,,,,,,,,,,,,,,,,
VIC,MELTON CITY,116560,BROOKSIDE PRESCHOOL,RECORDED,KIND,KINDERGARTEN,144.73661,-37.746625,116315,,,,,,,,,,,,,,,,,,,,,,,,,,,,,,,,,,,,,,,
VIC,STONNINGTON CITY,116561,BROOKVILLE KINDERGARTEN,RECORDED,KIND,KINDERGARTEN,145.009692,-37.84605,116316,,,,,,,,,,,,,,,,,,,,,,,,,,,,,,,,,,,,,,,
VIC,BALLARAT CITY,118426,BROWN HILL KINDERGARTEN,RECORDED,KIND,KINDERGARTEN,143.895114,-37.551716,118181,,,,,,,,,,,,,,,,,,,,,,,,,,,,,,,,,,,,,,,
VIC,FRANKSTON CITY,116562,BRUCE PARK PRESCHOOL,RECORDED,KIND,KINDERGARTEN,145.139565,-38.160603,116317,,,,,,,,,,,,,,,,,,,,,,,,,,,,,,,,,,,,,,,
VIC,MACEDON RANGES SHIRE,118427,BRUCE STREET KINDERGARTEN,RECORDED,KIND,KINDERGARTEN,144.565482,-37.421108,118182,,,,,,,,,,,,,,,,,,,,,,,,,,,,,,,,,,,,,,,
VIC,MORELAND CITY,116565,BRUNSWICK KINDERGARTEN,RECORDED,KIND,KINDERGARTEN,144.965397,-37.771856,116320,,,,,,,,,,,,,,,,,,,,,,,,,,,,,,,,,,,,,,,
VIC,EAST GIPPSLAND SHIRE,118428,BRUTHEN BOORAI CHILDRENS CENTRE,RECORDED,KIND,KINDERGARTEN,147.830359,-37.706695,118183,,,,,,,,,,,,,,,,,,,,,,,,,,,,,,,,,,,,,,,
VIC,EAST GIPPSLAND SHIRE,118429,BRUTHEN KINDERGARTEN,RECORDED,KIND,KINDERGARTEN,147.830762,-37.705527,118184,,,,,,,,,,,,,,,,,,,,,,,,,,,,,,,,,,,,,,,
VIC,EAST GIPPSLAND SHIRE,107160,BRUTHEN KINDERGARTEN,RECORDED,KIND,KINDERGARTEN,147.8308774,-37.705417,106915,,,,,,,,,,,,,,,,,,,,,,,,,,,,,,,,,,,,,,,
VIC,KINGSTON CITY,116567,BRUTHEN STREET KINDERGARTEN,RECORDED,KIND,KINDERGARTEN,145.054889,-37.938086,116322,,,,,,,,,,,,,,,,,,,,,,,,,,,,,,,,,,,,,,,
VIC,WHITTLESEA CITY,116568,BUBUP WILAM EARLY LEARNING,RECORDED,KIND,KINDERGARTEN,145.0042576,-37.6790351,116323,,,,,,,,,,,,,,,,,,,,,,,,,,,,,,,,,,,,,,,
VIC,MONASH CITY,116570,BUCKETS EARLY LEARNING CENTRE,RECORDED,KIND,KINDERGARTEN,145.0811,-37.892331,116325,,,,,,,,,,,,,,,,,,,,,,,,,,,,,,,,,,,,,,,
VIC,GLEN EIRA CITY,116571,BUDDIES EARLY LEARNING CENTRE,RECORDED,KIND,KINDERGARTEN,145.040997,-37.921292,116326,,,,,,,,,,,,,,,,,,,,,,,,,,,,,,,,,,,,,,,
VIC,WODONGA CITY,118431,BUG-A-LUGS FUN AND LEARNING CENTRE,RECORDED,KIND,KINDERGARTEN,146.883029,-36.119508,118186,,,,,,,,,,,,,,,,,,,,,,,,,,,,,,,,,,,,,,,
VIC,MARIBYRNONG CITY,115669,BULLDOGS COMMUNITY CHILDRENS CENTRE,RECORDED,KIND,KINDERGARTEN,144.885431,-37.79917,115424,,,,,,,,,,,,,,,,,,,,,,,,,,,,,,,,,,,,,,,
VIC,MANNINGHAM CITY,116572,BULLEEN PRESCHOOL,RECORDED,KIND,KINDERGARTEN,145.090611,-37.765294,116327,,,,,,,,,,,,,,,,,,,,,,,,,,,,,,,,,,,,,,,
VIC,MANNINGHAM CITY,116573,BULLEEN RHYTHM AND RHYME EARLY LEARNING CENTRE,RECORDED,KIND,KINDERGARTEN,145.088366,-37.766003,116328,,,,,,,,,,,,,,,,,,,,,,,,,,,,,,,,,,,,,,,
VIC,MAROONDAH CITY,116575,BUMBLE BEE SCHOOLHOUSE,RECORDED,KIND,KINDERGARTEN,145.294247,-37.769814,116330,,,,,,,,,,,,,,,,,,,,,,,,,,,,,,,,,,,,,,,
VIC,WODONGA CITY,118432,BUMBLE BEES CHILDCARE CENTRE,RECORDED,KIND,KINDERGARTEN,146.865663,-36.113387,118187,,,,,,,,,,,,,,,,,,,,,,,,,,,,,,,,,,,,,,,
VIC,WODONGA CITY,118433,BUMBLE BEES CHILDCARE THOMAS MITCHELL DRIVE,RECORDED,KIND,KINDERGARTEN,146.899392,-36.131828,118188,,,,,,,,,,,,,,,,,,,,,,,,,,,,,,,,,,,,,,,
VIC,BANYULE CITY,116576,BUNDOORA PRESCHOOL,RECORDED,KIND,KINDERGARTEN,145.062846,-37.703877,116331,,,,,,,,,,,,,,,,,,,,,,,,,,,,,,,,,,,,,,,
VIC,BALLARAT CITY,118434,BUNINYONG PRESCHOOL,RECORDED,KIND,KINDERGARTEN,143.887856,-37.650749,118189,,,,,,,,,,,,,,,,,,,,,,,,,,,,,,,,,,,,,,,
VIC,CARDINIA SHIRE,116578,BUNYIP CHILDCARE CENTRE,RECORDED,KIND,KINDERGARTEN,145.715245,-38.0916,116333,,,,,,,,,,,,,,,,,,,,,,,,,,,,,,,,,,,,,,,
VIC,CARDINIA SHIRE,116579,BUNYIP KINDERGARTEN,RECORDED,KIND,KINDERGARTEN,145.720009,-38.09544,116334,,,,,,,,,,,,,,,,,,,,,,,,,,,,,,,,,,,,,,,
VIC,MANNINGHAM CITY,116580,BURCH FAMILY MEMORIAL PRESCHOOL,RECORDED,KIND,KINDERGARTEN,145.268538,-37.739457,116335,,,,,,,,,,,,,,,,,,,,,,,,,,,,,,,,,,,,,,,
VIC,CASEY CITY,116584,BUSY BEES CHILDCARE CENTRE,RECORDED,KIND,KINDERGARTEN,145.240995,-37.96652,116339,,,,,,,,,,,,,,,,,,,,,,,,,,,,,,,,,,,,,,,
VIC,CENTRAL GOLDFIELDS SHIRE,107159,CALIFORNIA GULLY KINDERGARDEN,RECORDED,KIND,KINDERGARTEN,143.7353423,-37.039354,106914,,,,,,,,,,,,,,,,,,,,,,,,,,,,,,,,,,,,,,,
VIC,CENTRAL GOLDFIELDS SHIRE,118435,CALIFORNIAN GULLY KINDERGARTEN,RECORDED,KIND,KINDERGARTEN,143.735448,-37.039258,118190,,,,,,,,,,,,,,,,,,,,,,,,,,,,,,,,,,,,,,,
VIC,BOROONDARA CITY,116587,CAMBERWELL BAPTIST CHURCH KINDERGARTEN,RECORDED,KIND,KINDERGARTEN,145.055227,-37.831832,116342,,,,,,,,,,,,,,,,,,,,,,,,,,,,,,,,,,,,,,,
VIC,BOROONDARA CITY,116589,CAMBERWELL JUNCTION EARLY LEARNING CENTRE,RECORDED,KIND,KINDERGARTEN,145.05584,-37.828023,116344,,,,,,,,,,,,,,,,,,,,,,,,,,,,,,,,,,,,,,,
VIC,MELTON CITY,116591,CAMBRIAN PRESCHOOL,RECORDED,KIND,KINDERGARTEN,144.553617,-37.675349,116346,,,,,,,,,,,,,,,,,,,,,,,,,,,,,,,,,,,,,,,
VIC,LATROBE CITY,118436,CAMERON STREET KINDERGARTEN,RECORDED,KIND,KINDERGARTEN,146.556,-38.207204,118191,,,,,,,,,,,,,,,,,,,,,,,,,,,,,,,,,,,,,,,
VIC,CAMPASPE SHIRE,118437,CAMPASPE COMMUNITY CHILDRENS CENTRE,RECORDED,KIND,KINDERGARTEN,144.748838,-36.130032,118192,,,,,,,,,,,,,,,,,,,,,,,,,,,,,,,,,,,,,,,
VIC,HUME CITY,116593,CAMPBELLFIELD PRESCHOOL,RECORDED,KIND,KINDERGARTEN,144.964331,-37.675488,116348,,,,,,,,,,,,,,,,,,,,,,,,,,,,,,,,,,,,,,,
VIC,EAST GIPPSLAND SHIRE,118438,CANN RIVER COMMUNITY CENTRE OCCASIONAL CARE,RECORDED,KIND,KINDERGARTEN,149.153539,-37.566594,118193,"Traditional Name: Karn Explanation: N/A Discussion on Current Name: Note: Cann was a squatter in East Gippsland in 1850s, however Robinson had already recorded Karn in 1844,  Robinson in Yiruk 1991.",Maap,Yes,,,,,Website,"Clark, Ian and Heydon, Toby",,,,2011,,,,,,,,,,,Victorian Aboriginal Corporation for Languages,,Victorian Aboriginal Corporation for Languages,http://www.vaclang.org.au,,,,,,,,,,,,
VIC,EAST GIPPSLAND SHIRE,118439,CANN VALLEY COMMUNITY KINDERGARTEN,RECORDED,KIND,KINDERGARTEN,149.153539,-37.566594,118194,"Traditional Name: Karn Explanation: N/A Discussion on Current Name: Note: Cann was a squatter in East Gippsland in 1850s, however Robinson had already recorded Karn in 1844,  Robinson in Yiruk 1991.",Maap,Yes,,,,,Website,"Clark, Ian and Heydon, Toby",,,,2011,,,,,,,,,,,Victorian Aboriginal Corporation for Languages,,Victorian Aboriginal Corporation for Languages,http://www.vaclang.org.au,,,,,,,,,,,,
VIC,BOROONDARA CITY,116596,CANTERBURY & DISTRICT PRESCHOOL,RECORDED,KIND,KINDERGARTEN,145.089329,-37.821979,116351,,,,,,,,,,,,,,,,,,,,,,,,,,,,,,,,,,,,,,,
VIC,BOROONDARA CITY,116599,CANTERBURY NORWOOD BAPTIST KINDERGARTEN,RECORDED,KIND,KINDERGARTEN,145.078384,-37.82313,116354,,,,,,,,,,,,,,,,,,,,,,,,,,,,,,,,,,,,,,,
VIC,BOROONDARA CITY,116600,CARA ARMSTRONG KINDERGARTEN,RECORDED,KIND,KINDERGARTEN,145.052595,-37.820499,116355,,,,,,,,,,,,,,,,,,,,,,,,,,,,,,,,,,,,,,,
VIC,BOROONDARA CITY,116601,CAREY BAPTIST GRAMMAR SCHOOL EARLY CHILDHOOD CENTRE,RECORDED,KIND,KINDERGARTEN,145.047373,-37.813523,116356,,,,,,,,,,,,,,,,,,,,,,,,,,,,,,,,,,,,,,,
VIC,MANNINGHAM CITY,116602,CAREY GRAMMAR PRESCHOOL,RECORDED,KIND,KINDERGARTEN,145.187496,-37.772336,116357,,,,,,,,,,,,,,,,,,,,,,,,,,,,,,,,,,,,,,,
VIC,LATROBE CITY,118281,CARINYA EARLY LEARNING CENTRE,RECORDED,KIND,KINDERGARTEN,146.414118,-38.23276,118036,,,,,,,,,,,,,,,,,,,,,,,,,,,,,,,,,,,,,,,
VIC,BRIMBANK CITY,123441,CARMODY DRIVE KINDERGARTEN,REGISTERED,KIND,KINDERGARTEN,144.7880556,-37.7583333,122790,,,,,,,,,,,,,,,,,,,,,,,,,,,,,,,,,,,,,,,
VIC,GLEN EIRA CITY,116604,CARNEGIE CHILDRENS CENTRE,RECORDED,KIND,KINDERGARTEN,145.054997,-37.887767,116359,,,,,,,,,,,,,,,,,,,,,,,,,,,,,,,,,,,,,,,
VIC,GLEN EIRA CITY,116605,CARNEGIE UNITING CHURCH PRESCHOOL,RECORDED,KIND,KINDERGARTEN,145.053814,-37.887973,116360,,,,,,,,,,,,,,,,,,,,,,,,,,,,,,,,,,,,,,,
VIC,FRANKSTON CITY,116607,CARRUM DOWNS EARLY LEARNING CENTRE,RECORDED,KIND,KINDERGARTEN,145.182338,-38.100525,116362,,,,,,,,,,,,,,,,,,,,,,,,,,,,,,,,,,,,,,,
VIC,DAREBIN CITY,116608,CASA BAMBINI,RECORDED,KIND,KINDERGARTEN,145.025024,-37.738165,116363,,,,,,,,,,,,,,,,,,,,,,,,,,,,,,,,,,,,,,,
VIC,WHITEHORSE CITY,116609,CASA BAMBINI -BLACKBURN,RECORDED,KIND,KINDERGARTEN,145.140598,-37.809989,116364,,,,,,,,,,,,,,,,,,,,,,,,,,,,,,,,,,,,,,,
VIC,MOONEE VALLEY CITY,116610,CASA BAMBINI CHILDRENS CENTRE -ESSENDON,RECORDED,KIND,KINDERGARTEN,144.903425,-37.755692,116365,,,,,,,,,,,,,,,,,,,,,,,,,,,,,,,,,,,,,,,
VIC,MOUNT ALEXANDER SHIRE,118442,CASTLEMAINE KINDERGARTEN,RECORDED,KIND,KINDERGARTEN,144.216465,-37.059216,118197,,,,,,,,,,,,,,,,,,,,,,,,,,,,,,,,,,,,,,,
VIC,MOUNT ALEXANDER SHIRE,118443,CASTLEMAINE STEINER KINDERGARTEN,RECORDED,KIND,KINDERGARTEN,144.15764,-37.08122,118198,,,,,,,,,,,,,,,,,,,,,,,,,,,,,,,,,,,,,,,
VIC,MOUNT ALEXANDER SHIRE,106903,CASTLEMAINE STEINER SCHOOL AND KINDERGARTEN,REGISTERED,KIND,KINDERGARTEN,144.156687,-37.081883,106662,,,,,,,,,,,,,,,,,,,,,,,,,,,,,,,,,,,,,,,
VIC,MANNINGHAM CITY,116614,CATJUMP PRESCHOOL,RECORDED,KIND,KINDERGARTEN,145.174138,-37.779675,116369,,,,,,,,,,,,,,,,,,,,,,,,,,,,,,,,,,,,,,,
VIC,GLEN EIRA CITY,116615,CAULFIELD CHILDRENS CENTRE,RECORDED,KIND,KINDERGARTEN,145.021491,-37.880386,116370,,,,,,,,,,,,,,,,,,,,,,,,,,,,,,,,,,,,,,,
VIC,STONNINGTON CITY,116616,CAULFIELD GRAMMAR EARLY CHILDHOOD CENTRE-MALVERN CAMPUS,RECORDED,KIND,KINDERGARTEN,145.053213,-37.863973,116371,,,,,,,,,,,,,,,,,,,,,,,,,,,,,,,,,,,,,,,
VIC,GLEN EIRA CITY,116618,CAULFIELD PRIMARY EARLY CHILDHOOD CENTRE,RECORDED,KIND,KINDERGARTEN,145.020328,-37.886909,116373,,,,,,,,,,,,,,,,,,,,,,,,,,,,,,,,,,,,,,,
VIC,GLEN EIRA CITY,116620,CAULFIELD SOUTH KINDERGARTEN,RECORDED,KIND,KINDERGARTEN,145.021672,-37.892735,116375,,,,,,,,,,,,,,,,,,,,,,,,,,,,,,,,,,,,,,,
VIC,SOUTHERN GRAMPIANS SHIRE,118444,CAVENDISH PRESCHOOL,RECORDED,KIND,KINDERGARTEN,142.039735,-37.530382,118199,,,,,,,,,,,,,,,,,,,,,,,,,,,,,,,,,,,,,,,
VIC,WHITTLESEA CITY,116621,CENTENARY DRIVE KINDERGARTEN,RECORDED,KIND,KINDERGARTEN,145.067275,-37.658559,116376,,,,,,,,,,,,,,,,,,,,,,,,,,,,,,,,,,,,,,,
VIC,WHITEHORSE CITY,116622,CENTRAL BOX HILL CHILDRENS SERVICES CENTRE,RECORDED,KIND,KINDERGARTEN,145.122948,-37.821551,116377,,,,,,,,,,,,,,,,,,,,,,,,,,,,,,,,,,,,,,,
VIC,MELBOURNE CITY,116623,CENTRAL CARLTON CHILDRENS CENTRE,RECORDED,KIND,KINDERGARTEN,144.969238,-37.794058,116378,,,,,,,,,,,,,,,,,,,,,,,,,,,,,,,,,,,,,,,
VIC,WARRNAMBOOL CITY,118445,CENTRAL WARRNAMBOOL KINDERGARTEN,RECORDED,KIND,KINDERGARTEN,142.486322,-38.379535,118200,,,,,,,,,,,,,,,,,,,,,,,,,,,,,,,,,,,,,,,
VIC,GLEN EIRA CITY,116626,CENTRE ROAD KINDERGARTEN,RECORDED,KIND,KINDERGARTEN,145.07226,-37.922998,116381,,,,,,,,,,,,,,,,,,,,,,,,,,,,,,,,,,,,,,,
VIC,BOROONDARA CITY,116628,CGS PRE-PREPARATORY CENTRE,RECORDED,KIND,KINDERGARTEN,145.065526,-37.815351,116383,,,,,,,,,,,,,,,,,,,,,,,,,,,,,,,,,,,,,,,
VIC,BAW BAW SHIRE,118446,CHAIRO CHRISTIAN SCHOOL EARLY LEARNING CENTRE,RECORDED,KIND,KINDERGARTEN,145.895538,-38.134396,118201,,,,,,,,,,,,,,,,,,,,,,,,,,,,,,,,,,,,,,,
VIC,CASEY CITY,116632,CHALCOT LODGE KINDERGARTEN,RECORDED,KIND,KINDERGARTEN,145.248862,-37.970323,116387,,,,,,,,,,,,,,,,,,,,,,,,,,,,,,,,,,,,,,,
VIC,GREATER DANDENONG CITY,116633,CHANDLER KINDERGARTEN,RECORDED,KIND,KINDERGARTEN,145.175678,-37.988082,116388,,,,,,,,,,,,,,,,,,,,,,,,,,,,,,,,,,,,,,,
VIC,BULOKE SHIRE,118447,CHARLTON & DISTRICT KINDERGARTEN,RECORDED,KIND,KINDERGARTEN,143.349691,-36.269477,118202,,,,,,,,,,,,,,,,,,,,,,,,,,,,,,,,,,,,,,,
VIC,MOYNE SHIRE,118448,CHATSWORTH KINDERGARTEN,RECORDED,KIND,KINDERGARTEN,142.643525,-37.86039,118203,,,,,,,,,,,,,,,,,,,,,,,,,,,,,,,,,,,,,,,
VIC,BANYULE CITY,116637,CHEERIOKIDS HEIDELBERG,RECORDED,KIND,KINDERGARTEN,145.047993,-37.748065,116392,,,,,,,,,,,,,,,,,,,,,,,,,,,,,,,,,,,,,,,
VIC,KINGSTON CITY,116640,CHELSEA HEIGHTS KINDERGARTEN,RECORDED,KIND,KINDERGARTEN,145.133665,-38.043247,116395,,,,,,,,,,,,,,,,,,,,,,,,,,,,,,,,,,,,,,,
VIC,KINGSTON CITY,116641,CHELSEA KINDERGARTEN,RECORDED,KIND,KINDERGARTEN,145.123554,-38.050848,116396,,,,,,,,,,,,,,,,,,,,,,,,,,,,,,,,,,,,,,,
VIC,KINGSTON CITY,116642,CHELSEA OCCASIONAL CARE,RECORDED,KIND,KINDERGARTEN,145.123696,-38.051121,116397,,,,,,,,,,,,,,,,,,,,,,,,,,,,,,,,,,,,,,,
VIC,BALLARAT CITY,118449,CHERISH EARLY LEARNING CENTRE,RECORDED,KIND,KINDERGARTEN,143.838747,-37.604267,118204,,,,,,,,,,,,,,,,,,,,,,,,,,,,,,,,,,,,,,,
VIC,MARIBYRNONG CITY,116644,CHERRY CRESCENT PRESCHOOL,RECORDED,KIND,KINDERGARTEN,144.857684,-37.784678,116399,,,,,,,,,,,,,,,,,,,,,,,,,,,,,,,,,,,,,,,
VIC,GREATER DANDENONG CITY,116645,CHILDCARE ON HEATHERTON,RECORDED,KIND,KINDERGARTEN,145.22577,-37.971486,116400,,,,,,,,,,,,,,,,,,,,,,,,,,,,,,,,,,,,,,,
VIC,WHITEHORSE CITY,116646,CHILDRENS CORNER LEARNING CENTRE,RECORDED,KIND,KINDERGARTEN,145.186843,-37.802933,116401,,,,,,,,,,,,,,,,,,,,,,,,,,,,,,,,,,,,,,,
VIC,YARRA RANGES SHIRE,116648,CHILDRENS HOUSE OF EARLY LEARNING,RECORDED,KIND,KINDERGARTEN,145.388305,-37.792497,116403,,,,,,,,,,,,,,,,,,,,,,,,,,,,,,,,,,,,,,,
VIC,MELBOURNE CITY,116649,CHILDRENS WORLD FAMILY DAY CARE SERVICE,RECORDED,KIND,KINDERGARTEN,144.940527,-37.791777,116404,,,,,,,,,,,,,,,,,,,,,,,,,,,,,,,,,,,,,,,
VIC,YARRA RANGES SHIRE,116650,CHIRNSIDE PARK COMMUNITY CENTRE OCCASIONAL CARE,RECORDED,KIND,KINDERGARTEN,145.310604,-37.752922,116405,,,,,,,,,,,,,,,,,,,,,,,,,,,,,,,,,,,,,,,
VIC,YARRA RANGES SHIRE,116651,CHIRNSIDE PARK PRESCHOOL,RECORDED,KIND,KINDERGARTEN,145.325957,-37.756942,116406,,,,,,,,,,,,,,,,,,,,,,,,,,,,,,,,,,,,,,,
VIC,MELBOURNE CITY,116653,CHRIST CHURCH GRAMMAR KINDERGARTEN,RECORDED,KIND,KINDERGARTEN,144.986108,-37.839001,116408,,,,,,,,,,,,,,,,,,,,,,,,,,,,,,,,,,,,,,,
VIC,WANGARATTA RURAL CITY,118450,CHRISTOPHER ROBIN KINDERGARTEN,RECORDED,KIND,KINDERGARTEN,146.326125,-36.358398,118205,,,,,,,,,,,,,,,,,,,,,,,,,,,,,,,,,,,,,,,
VIC,SOUTHERN GRAMPIANS SHIRE,118451,CHURCH HILL KINDERGARTEN,RECORDED,KIND,KINDERGARTEN,142.016998,-37.746015,118206,,,,,,,,,,,,,,,,,,,,,,,,,,,,,,,,,,,,,,,
VIC,MARIBYRNONG CITY,115670,CHURCH STREET CHILDRENS CENTRE,RECORDED,KIND,KINDERGARTEN,144.877885,-37.793021,115425,,,,,,,,,,,,,,,,,,,,,,,,,,,,,,,,,,,,,,,
VIC,LATROBE CITY,118452,CHURCHILL CENTRAL PRESCHOOL,RECORDED,KIND,KINDERGARTEN,146.422094,-38.313253,118207,,,,,,,,,,,,,,,,,,,,,,,,,,,,,,,,,,,,,,,
VIC,LATROBE CITY,118453,CHURCHILL NORTH SCHOOL HOLIDAY PROGRAM,RECORDED,KIND,KINDERGARTEN,146.41642,-38.304267,118208,,,,,,,,,,,,,,,,,,,,,,,,,,,,,,,,,,,,,,,
VIC,GLEN EIRA CITY,116654,CITY HALL OCCASIONAL CARE,RECORDED,KIND,KINDERGARTEN,145.021491,-37.880386,116409,,,,,,,,,,,,,,,,,,,,,,,,,,,,,,,,,,,,,,,
VIC,GREATER GEELONG CITY,116655,CITY LEARNING & CARE -ARISTON,RECORDED,KIND,KINDERGARTEN,144.346775,-38.147516,116410,,,,,,,,,,,,,,,,,,,,,,,,,,,,,,,,,,,,,,,
VIC,GREATER GEELONG CITY,116656,CITY LEARNING & CARE -BELMONT,RECORDED,KIND,KINDERGARTEN,144.326438,-38.188309,116411,,,,,,,,,,,,,,,,,,,,,,,,,,,,,,,,,,,,,,,
VIC,GREATER GEELONG CITY,116657,CITY LEARNING & CARE -CORIO,RECORDED,KIND,KINDERGARTEN,144.35517,-38.073516,116412,,,,,,,,,,,,,,,,,,,,,,,,,,,,,,,,,,,,,,,
VIC,GREATER GEELONG CITY,116658,CITY LEARNING & CARE -DRYSDALE,RECORDED,KIND,KINDERGARTEN,144.569609,-38.174544,116413,,,,,,,,,,,,,,,,,,,,,,,,,,,,,,,,,,,,,,,
VIC,GREATER GEELONG CITY,116659,CITY LEARNING & CARE -OCEAN GROVE,RECORDED,KIND,KINDERGARTEN,144.538632,-38.260896,116414,,,,,,,,,,,,,,,,,,,,,,,,,,,,,,,,,,,,,,,
VIC,GREATER GEELONG CITY,116660,CITY LEARNING & CARE -THE LINK,RECORDED,KIND,KINDERGARTEN,144.394815,-38.178577,116415,,,,,,,,,,,,,,,,,,,,,,,,,,,,,,,,,,,,,,,
VIC,GREATER GEELONG CITY,116661,CITY LEARNING & CARE -TRUDY MORITZ,RECORDED,KIND,KINDERGARTEN,144.349142,-38.09108,116416,,,,,,,,,,,,,,,,,,,,,,,,,,,,,,,,,,,,,,,
VIC,PORT PHILLIP CITY,116663,CIVIC KINDERGARTEN,RECORDED,KIND,KINDERGARTEN,144.961937,-37.849838,116418,,,,,,,,,,,,,,,,,,,,,,,,,,,,,,,,,,,,,,,
VIC,CASEY CITY,116664,CKS EARLY LEARNING CENTRE AND KINDERGARTEN,RECORDED,KIND,KINDERGARTEN,145.268081,-38.08896,116419,,,,,,,,,,,,,,,,,,,,,,,,,,,,,,,,,,,,,,,
VIC,MARIBYRNONG CITY,107155,CLARE COURT KINDERGARTEN,RECORDED,KIND,KINDERGARTEN,144.8780876,-37.8176565,106910,,,,,,,,,,,,,,,,,,,,,,,,,,,,,,,,,,,,,,,
VIC,PORT PHILLIP CITY,116665,CLARENDON CHILDRENS CENTRE CO-OP,RECORDED,KIND,KINDERGARTEN,144.96209,-37.836852,116420,,,,,,,,,,,,,,,,,,,,,,,,,,,,,,,,,,,,,,,
VIC,CASEY CITY,116667,CLARENDON STREET PRESCHOOL,RECORDED,KIND,KINDERGARTEN,145.276384,-38.104102,116422,,,,,,,,,,,,,,,,,,,,,,,,,,,,,,,,,,,,,,,
VIC,PORT PHILLIP CITY,116668,CLARK STREET CHILDRENS CENTRE,RECORDED,KIND,KINDERGARTEN,144.935006,-37.835049,116423,,,,,,,,,,,,,,,,,,,,,,,,,,,,,,,,,,,,,,,
VIC,MONASH CITY,116669,CLAYTON COMMUNITY CENTRE KINDERGARTEN,RECORDED,KIND,KINDERGARTEN,145.117675,-37.927736,116424,,,,,,,,,,,,,,,,,,,,,,,,,,,,,,,,,,,,,,,
VIC,BOROONDARA CITY,116671,CLEVER KIDS CHILDCARE -ASHBURTON,RECORDED,KIND,KINDERGARTEN,145.092438,-37.86676,116426,,,,,,,,,,,,,,,,,,,,,,,,,,,,,,,,,,,,,,,
VIC,MORNINGTON PENINSULA SHIRE,116672,CLEVER LITTLE MONKEYS,RECORDED,KIND,KINDERGARTEN,145.054784,-38.241792,116427,,,,,,,,,,,,,,,,,,,,,,,,,,,,,,,,,,,,,,,
VIC,YARRA CITY,116674,CLIFTON HILL PRESBYTERIAN KINDERGARTEN INC,RECORDED,KIND,KINDERGARTEN,144.990538,-37.787499,116429,,,,,,,,,,,,,,,,,,,,,,,,,,,,,,,,,,,,,,,
VIC,GREATER GEELONG CITY,116675,CLIFTON SPRINGS PRESCHOOL,RECORDED,KIND,KINDERGARTEN,144.561632,-38.159584,116430,,,,,,,,,,,,,,,,,,,,,,,,,,,,,,,,,,,,,,,
VIC,DAREBIN CITY,116676,CLIFTON STREET CHILDRENS CENTRE,RECORDED,KIND,KINDERGARTEN,145.012302,-37.768272,116431,,,,,,,,,,,,,,,,,,,,,,,,,,,,,,,,,,,,,,,
VIC,HEPBURN SHIRE,118454,CLUNES & DISTRICT PRESCHOOL CENTRE,RECORDED,KIND,KINDERGARTEN,143.78905,-37.297679,118209,,,,,,,,,,,,,,,,,,,,,,,,,,,,,,,,,,,,,,,
VIC,DAREBIN CITY,116678,CLYDE STREET KINDERGARTEN,RECORDED,KIND,KINDERGARTEN,145.014059,-37.761977,116433,,,,,,,,,,,,,,,,,,,,,,,,,,,,,,,,,,,,,,,
VIC,CORANGAMITE SHIRE,118456,COBDEN KINDERGARTEN,RECORDED,KIND,KINDERGARTEN,143.077062,-38.327845,118211,,,,,,,,,,,,,,,,,,,,,,,,,,,,,,,,,,,,,,,
VIC,MOIRA SHIRE,118457,COBRAM KIDS EDUCATION CENTRE,RECORDED,KIND,KINDERGARTEN,145.650487,-35.916947,118212,,,,,,,,,,,,,,,,,,,,,,,,,,,,,,,,,,,,,,,
VIC,MOIRA SHIRE,118458,COBRAM NEIGHBOURHOOD EARLY LEARNING CENTRE,RECORDED,KIND,KINDERGARTEN,145.657495,-35.91691,118213,,,,,,,,,,,,,,,,,,,,,,,,,,,,,,,,,,,,,,,
VIC,MORELAND CITY,116680,COBURG CHILDRENS CENTRE,RECORDED,KIND,KINDERGARTEN,144.970393,-37.741411,116435,,,,,,,,,,,,,,,,,,,,,,,,,,,,,,,,,,,,,,,
VIC,CARDINIA SHIRE,116683,COCKATOO COMMUNITY CHILDCARE CENTRE,RECORDED,KIND,KINDERGARTEN,145.492523,-37.939958,116438,,,,,,,,,,,,,,,,,,,,,,,,,,,,,,,,,,,,,,,
VIC,CARDINIA SHIRE,116684,COCKATOO KINDER,RECORDED,KIND,KINDERGARTEN,145.4840913,-37.9349624,116439,,,,,,,,,,,,,,,,,,,,,,,,,,,,,,,,,,,,,,,
VIC,CARDINIA SHIRE,116685,COCKATOO MONTESSORI SCHOOL,RECORDED,KIND,KINDERGARTEN,145.518834,-37.92372,116440,,,,,,,,,,,,,,,,,,,,,,,,,,,,,,,,,,,,,,,
VIC,CARDINIA SHIRE,106098,COCKATOO MONTESSORI SCHOOL,REGISTERED,KIND,KINDERGARTEN,145.518103,-37.923656,105857,,,,,,,,,,,,,,,,,,,,,,,,,,,,,,,,,,,,,,,
VIC,GANNAWARRA SHIRE,118459,COHUNA & DISTRICT PRESCHOOL CENTRE,RECORDED,KIND,KINDERGARTEN,144.22075,-35.811254,118214,,,,,,,,,,,,,,,,,,,,,,,,,,,,,,,,,,,,,,,
VIC,COLAC OTWAY SHIRE,118460,COLAC EAST KINDERGARTEN,RECORDED,KIND,KINDERGARTEN,143.595966,-38.336261,118215,,,,,,,,,,,,,,,,,,,,,,,,,,,,,,,,,,,,,,,
VIC,CAMPASPE SHIRE,118461,COLBINABBIN PRESCHOOL,RECORDED,KIND,KINDERGARTEN,144.773997,-36.595876,118216,,,,,,,,,,,,,,,,,,,,,,,,,,,,,,,,,,,,,,,
VIC,KNOX CITY,116686,COLCHESTER PARK PRESCHOOL,RECORDED,KIND,KINDERGARTEN,145.304784,-37.847147,116441,,,,,,,,,,,,,,,,,,,,,,,,,,,,,,,,,,,,,,,
VIC,YARRA RANGES SHIRE,116687,COLDSTREAM PRESCHOOL,RECORDED,KIND,KINDERGARTEN,145.382134,-37.732763,116442,,,,,,,,,,,,,,,,,,,,,,,,,,,,,,,,,,,,,,,
VIC,SOUTHERN GRAMPIANS SHIRE,118462,COLERAINE KINDERGARTEN,RECORDED,KIND,KINDERGARTEN,141.693544,-37.600366,118217,,,,,,,,,,,,,,,,,,,,,,,,,,,,,,,,,,,,,,,
VIC,CASEY CITY,116688,COLLEGE EARLY LEARNING CENTRE-CASEY,RECORDED,KIND,KINDERGARTEN,145.299753,-38.04929,116443,,,,,,,,,,,,,,,,,,,,,,,,,,,,,,,,,,,,,,,
VIC,WYNDHAM CITY,116689,COLLEGE ROAD KINDERGARTEN,RECORDED,KIND,KINDERGARTEN,144.666152,-37.906945,116444,,,,,,,,,,,,,,,,,,,,,,,,,,,,,,,,,,,,,,,
VIC,WYNDHAM CITY,116690,COLLEGE ROAD KINDERGARTEN (COMMUNITY ROOM),RECORDED,KIND,KINDERGARTEN,144.666152,-37.906945,116445,,,,,,,,,,,,,,,,,,,,,,,,,,,,,,,,,,,,,,,
VIC,YARRA CITY,116692,COLLINGWOOD NEIGHBOURHOOD HOUSE OCCASIONAL CARE,RECORDED,KIND,KINDERGARTEN,144.991872,-37.801003,116447,,,,,,,,,,,,,,,,,,,,,,,,,,,,,,,,,,,,,,,
VIC,GREATER SHEPPARTON CITY,118463,COLLIVER ROAD CHILDRENS CENTRE,RECORDED,KIND,KINDERGARTEN,145.401066,-36.39933,118218,,,,,,,,,,,,,,,,,,,,,,,,,,,,,,,,,,,,,,,
VIC,MONASH CITY,116694,COLUMBIA PARK KINDERGARTEN,RECORDED,KIND,KINDERGARTEN,145.184496,-37.915445,116449,,,,,,,,,,,,,,,,,,,,,,,,,,,,,,,,,,,,,,,
VIC,MOONEE VALLEY CITY,116695,COMMUNITY CHILDREN -ESSENDON,RECORDED,KIND,KINDERGARTEN,144.897649,-37.750038,116450,,,,,,,,,,,,,,,,,,,,,,,,,,,,,,,,,,,,,,,
VIC,WYNDHAM CITY,116696,COMMUNITY CHILDREN-WYNDHAM VALE,RECORDED,KIND,KINDERGARTEN,144.613427,-37.887312,116451,,,,,,,,,,,,,,,,,,,,,,,,,,,,,,,,,,,,,,,
VIC,WODONGA CITY,118465,COMMUNITY EARLY -YEARS CHILDCARE SOUTH STREET,RECORDED,KIND,KINDERGARTEN,146.888761,-36.118181,118220,,,,,,,,,,,,,,,,,,,,,,,,,,,,,,,,,,,,,,,
VIC,INDIGO SHIRE,118466,COMMUNITY EARLY-YEARS CHILDCARE -CHILTERN,RECORDED,KIND,KINDERGARTEN,146.609406,-36.150256,118221,,,,,,,,,,,,,,,,,,,,,,,,,,,,,,,,,,,,,,,
VIC,ALPINE SHIRE,118467,COMMUNITY EARLY-YEARS CHILDCARE -DEDERANG,RECORDED,KIND,KINDERGARTEN,147.018699,-36.475564,118222,,,,,,,,,,,,,,,,,,,,,,,,,,,,,,,,,,,,,,,
VIC,INDIGO SHIRE,118468,COMMUNITY EARLY-YEARS CHILDCARE -KERGUNYAH,RECORDED,KIND,KINDERGARTEN,147.030482,-36.328167,118223,,,,,,,,,,,,,,,,,,,,,,,,,,,,,,,,,,,,,,,
VIC,INDIGO SHIRE,118469,COMMUNITY EARLY-YEARS CHILDCARE -KIEWA,RECORDED,KIND,KINDERGARTEN,147.030698,-36.252082,118224,,,,,,,,,,,,,,,,,,,,,,,,,,,,,,,,,,,,,,,
VIC,TOWONG SHIRE,118470,COMMUNITY EARLY-YEARS CHILDCARE -MITTA MITTA,RECORDED,KIND,KINDERGARTEN,147.373229,-36.533826,118225,,,,,,,,,,,,,,,,,,,,,,,,,,,,,,,,,,,,,,,
VIC,TOWONG SHIRE,118471,COMMUNITY EARLY-YEARS CHILDCARE -TALGARNO,RECORDED,KIND,KINDERGARTEN,147.160258,-36.066873,118226,,,,,,,,,,,,,,,,,,,,,,,,,,,,,,,,,,,,,,,
VIC,TOWONG SHIRE,118472,COMMUNITY EARLY-YEARS CHILDCARE -WALWA,RECORDED,KIND,KINDERGARTEN,147.737604,-35.963643,118227,,,,,,,,,,,,,,,,,,,,,,,,,,,,,,,,,,,,,,,
VIC,INDIGO SHIRE,118473,COMMUNITY EARLY-YEARS CHILDCARE -YACKANDANDAH,RECORDED,KIND,KINDERGARTEN,146.829385,-36.313566,118228,,,,,,,,,,,,,,,,,,,,,,,,,,,,,,,,,,,,,,,
VIC,DAREBIN CITY,116699,COMPLETE CARE FOR KIDS,RECORDED,KIND,KINDERGARTEN,145.025983,-37.775077,116454,,,,,,,,,,,,,,,,,,,,,,,,,,,,,,,,,,,,,,,
VIC,MELBOURNE CITY,116700,COMPLETE CHILDCARE SOLUTIONS -FAMILY DAY CARE SERVICE,RECORDED,KIND,KINDERGARTEN,144.966713,-37.800509,116455,,,,,,,,,,,,,,,,,,,,,,,,,,,,,,,,,,,,,,,
VIC,HUME CITY,116701,COOINDA EARLY LEARNING CENTRE,RECORDED,KIND,KINDERGARTEN,144.885574,-37.67546,116456,,,,,,,,,,,,,,,,,,,,,,,,,,,,,,,,,,,,,,,
VIC,NORTHERN GRAMPIANS SHIRE,118474,COOINDA KINDERGARTEN,RECORDED,KIND,KINDERGARTEN,142.769703,-37.064877,118229,,,,,,,,,,,,,,,,,,,,,,,,,,,,,,,,,,,,,,,
VIC,KNOX CITY,116702,COOINDA KINDERGARTEN,RECORDED,KIND,KINDERGARTEN,145.259259,-37.861117,116457,,,,,,,,,,,,,,,,,,,,,,,,,,,,,,,,,,,,,,,
VIC,HUME CITY,116704,COOLAROO SOUTH KINDERGARTEN AT COOLAROO SOUTH PRIMARY SCHOOL,RECORDED,KIND,KINDERGARTEN,144.930366,-37.662084,116459,,,,,,,,,,,,,,,,,,,,,,,,,,,,,,,,,,,,,,,
VIC,HUME CITY,116705,COOLAROO SOUTH PRIMARY SCHOOL KINDERGARTEN -3.Y.O ACTIVITY GROUP,RECORDED,KIND,KINDERGARTEN,144.933417,-37.664084,116460,,,,,,,,,,,,,,,,,,,,,,,,,,,,,,,,,,,,,,,
VIC,HOBSONS BAY CITY,116707,COORAMINTA CHILDRENS CENTRE,RECORDED,KIND,KINDERGARTEN,144.768014,-37.871259,116462,,,,,,,,,,,,,,,,,,,,,,,,,,,,,,,,,,,,,,,
VIC,HOBSONS BAY CITY,116708,COORAMINTA KINDERGARTEN,RECORDED,KIND,KINDERGARTEN,144.768014,-37.871259,116463,,,,,,,,,,,,,,,,,,,,,,,,,,,,,,,,,,,,,,,
VIC,KNOX CITY,116709,COORIE AVENUE CHILDRENS CENTRE,RECORDED,KIND,KINDERGARTEN,145.268551,-37.846799,116464,,,,,,,,,,,,,,,,,,,,,,,,,,,,,,,,,,,,,,,
VIC,BRIMBANK CITY,116710,COPPERFIELDS PRESCHOOL,RECORDED,KIND,KINDERGARTEN,144.771719,-37.717204,116465,,,,,,,,,,,,,,,,,,,,,,,,,,,,,,,,,,,,,,,
VIC,CASEY CITY,116711,CORAL DRIVE KINDERGARTEN,RECORDED,KIND,KINDERGARTEN,145.275385,-38.044234,116466,,,,,,,,,,,,,,,,,,,,,,,,,,,,,,,,,,,,,,,
VIC,GREATER GEELONG CITY,116714,CORIO KINDERGARTEN,RECORDED,KIND,KINDERGARTEN,144.351246,-38.073101,116469,,,,,,,,,,,,,,,,,,,,,,,,,,,,,,,,,,,,,,,
VIC,GREATER GEELONG CITY,116716,CORIO SOUTH NORLANE KINDERGARTEN,RECORDED,KIND,KINDERGARTEN,144.353311,-38.081387,116471,,,,,,,,,,,,,,,,,,,,,,,,,,,,,,,,,,,,,,,
VIC,MOONEE VALLEY CITY,116717,CORONATION KINDERGARTEN,RECORDED,KIND,KINDERGARTEN,144.913792,-37.774504,116472,,,,,,,,,,,,,,,,,,,,,,,,,,,,,,,,,,,,,,,
VIC,WANGARATTA RURAL CITY,118475,CORONATION KINDERGARTEN,RECORDED,KIND,KINDERGARTEN,146.3097,-36.357188,118230,,,,,,,,,,,,,,,,,,,,,,,,,,,,,,,,,,,,,,,
VIC,COLAC OTWAY SHIRE,118285,COROROOKE FAMILY DAY CARE,RECORDED,KIND,KINDERGARTEN,143.5223307,-38.2841881,118040,,,,,,,,,,,,,,,,,,,,,,,,,,,,,,,,,,,,,,,
VIC,GREATER DANDENONG CITY,116718,CORRIGAN REX KINDERGARTEN,RECORDED,KIND,KINDERGARTEN,145.167188,-37.981488,116473,,,,,,,,,,,,,,,,,,,,,,,,,,,,,,,,,,,,,,,
VIC,TOWONG SHIRE,118476,CORRYONG PRESCHOOL,RECORDED,KIND,KINDERGARTEN,147.903483,-36.195139,118231,,,,,,,,,,,,,,,,,,,,,,,,,,,,,,,,,,,,,,,
VIC,MOIRA SHIRE,118477,COUNTRY BUDDIES,RECORDED,KIND,KINDERGARTEN,146.020871,-36.011937,118232,,,,,,,,,,,,,,,,,,,,,,,,,,,,,,,,,,,,,,,
VIC,INDIGO SHIRE,118478,COUNTRY BUDDIES WAHGUNYAH,RECORDED,KIND,KINDERGARTEN,146.396415,-36.012112,118233,,,,,,,,,,,,,,,,,,,,,,,,,,,,,,,,,,,,,,,
VIC,GREATER GEELONG CITY,116719,COVENANT COLLEGE KINDERGARTEN,RECORDED,KIND,KINDERGARTEN,144.317656,-38.097797,116474,,,,,,,,,,,,,,,,,,,,,,,,,,,,,,,,,,,,,,,
VIC,PORT PHILLIP CITY,116720,COVENTRY CHILDRENS CENTRE,RECORDED,KIND,KINDERGARTEN,144.955802,-37.832889,116475,,,,,,,,,,,,,,,,,,,,,,,,,,,,,,,,,,,,,,,
VIC,BASS COAST SHIRE,118479,COWES CHILDRENS CENTRE,RECORDED,KIND,KINDERGARTEN,145.219747,-38.452487,118234,,,,,,,,,,,,,,,,,,,,,,,,,,,,,,,,,,,,,,,
VIC,BANYULE CITY,116721,CPS CHILDRENS CENTRE,RECORDED,KIND,KINDERGARTEN,145.041169,-37.741689,116476,,,,,,,,,,,,,,,,,,,,,,,,,,,,,,,,,,,,,,,
VIC,BRIMBANK CITY,116722,CRADLES TO CRAYONS EARLY LEARNING CENTRE,RECORDED,KIND,KINDERGARTEN,144.818809,-37.733311,116477,,,,,,,,,,,,,,,,,,,,,,,,,,,,,,,,,,,,,,,
VIC,KNOX CITY,116723,CRAFTS FOR KIDS CHILDRENS CENTRE,RECORDED,KIND,KINDERGARTEN,145.227509,-37.867354,116478,,,,,,,,,,,,,,,,,,,,,,,,,,,,,,,,,,,,,,,
VIC,HUME CITY,116725,CRAIGIEBURN CHILD AND FAMILY CENTRE,RECORDED,KIND,KINDERGARTEN,144.925396,-37.578775,116480,,,,,,,,,,,,,,,,,,,,,,,,,,,,,,,,,,,,,,,
VIC,HUME CITY,116726,CRAIGIEBURN EARLY CHILDHOOD SERVICES (CRAIGIEBURN ROAD CAMPUS),RECORDED,KIND,KINDERGARTEN,144.933958,-37.598315,116481,,,,,,,,,,,,,,,,,,,,,,,,,,,,,,,,,,,,,,,
VIC,HUME CITY,116727,CRAIGIEBURN EARLY CHILDHOOD SERVICES (HILTON STREET CAMPUS),RECORDED,KIND,KINDERGARTEN,144.939464,-37.594754,116482,,,,,,,,,,,,,,,,,,,,,,,,,,,,,,,,,,,,,,,
VIC,CASEY CITY,116730,CRANBOURNE DAY CARE & KINDERGARTEN CENTRE,RECORDED,KIND,KINDERGARTEN,145.276134,-38.108526,116485,,,,,,,,,,,,,,,,,,,,,,,,,,,,,,,,,,,,,,,
VIC,CASEY CITY,116731,CRANBOURNE DAY CARE & KINDERGARTEN CENTRE PTY LTD,RECORDED,KIND,KINDERGARTEN,145.28102,-38.107265,116486,,,,,,,,,,,,,,,,,,,,,,,,,,,,,,,,,,,,,,,
VIC,CASEY CITY,116732,CRANBOURNE EARLY LEARNING CENTRE,RECORDED,KIND,KINDERGARTEN,145.26475,-38.102681,116487,,,,,,,,,,,,,,,,,,,,,,,,,,,,,,,,,,,,,,,
VIC,CASEY CITY,116733,CRANBOURNE KIDS EDUCATION CENTRE,RECORDED,KIND,KINDERGARTEN,145.283969,-38.080941,116488,,,,,,,,,,,,,,,,,,,,,,,,,,,,,,,,,,,,,,,
VIC,CASEY CITY,116734,CRANBOURNE PRESCHOOL,RECORDED,KIND,KINDERGARTEN,145.285473,-38.11682,116489,,,,,,,,,,,,,,,,,,,,,,,,,,,,,,,,,,,,,,,
VIC,KINGSTON CITY,116735,CREATIVE BEGINNINGS,RECORDED,KIND,KINDERGARTEN,145.081417,-37.979792,116490,,,,,,,,,,,,,,,,,,,,,,,,,,,,,,,,,,,,,,,
VIC,MORNINGTON PENINSULA SHIRE,116736,CREATIVE KIDS EARLY LEARNING CENTRE,RECORDED,KIND,KINDERGARTEN,145.043337,-38.229346,116491,,,,,,,,,,,,,,,,,,,,,,,,,,,,,,,,,,,,,,,
VIC,MANNINGHAM CITY,116737,CREATIVE PLAY EARLY LEARNING CENTRE,RECORDED,KIND,KINDERGARTEN,145.083707,-37.760171,116492,,,,,,,,,,,,,,,,,,,,,,,,,,,,,,,,,,,,,,,
VIC,HEPBURN SHIRE,118480,CRESWICK & DISTRICT PRESCHOOL,RECORDED,KIND,KINDERGARTEN,143.89083,-37.422963,118235,,,,,,,,,,,,,,,,,,,,,,,,,,,,,,,,,,,,,,,
VIC,HEPBURN SHIRE,118482,CRESWICK LEARNING CENTRE,RECORDED,KIND,KINDERGARTEN,143.89083,-37.422963,118237,,,,,,,,,,,,,,,,,,,,,,,,,,,,,,,,,,,,,,,
VIC,MORNINGTON PENINSULA SHIRE,116739,CRIB POINT PRESCHOOL,RECORDED,KIND,KINDERGARTEN,145.203771,-38.367107,116494,,,,,,,,,,,,,,,,,,,,,,,,,,,,,,,,,,,,,,,
VIC,MAROONDAH CITY,116742,CROYDON CENTRAL KINDERGARTEN,RECORDED,KIND,KINDERGARTEN,145.282103,-37.799576,116497,,,,,,,,,,,,,,,,,,,,,,,,,,,,,,,,,,,,,,,
VIC,MAROONDAH CITY,116743,CROYDON EARLY LEARNING AND CHILDCARE CENTRE,RECORDED,KIND,KINDERGARTEN,145.286216,-37.799473,116498,,,,,,,,,,,,,,,,,,,,,,,,,,,,,,,,,,,,,,,
VIC,MAROONDAH CITY,116744,CROYDON GUMS KINDERGARTEN,RECORDED,KIND,KINDERGARTEN,145.28528,-37.808517,116499,,,,,,,,,,,,,,,,,,,,,,,,,,,,,,,,,,,,,,,
VIC,MAROONDAH CITY,116746,CROYDON NORTH KINDERGARTEN,RECORDED,KIND,KINDERGARTEN,145.290407,-37.771425,116501,,,,,,,,,,,,,,,,,,,,,,,,,,,,,,,,,,,,,,,
VIC,MAROONDAH CITY,116747,CROYINDA THREE YEAR OLD KINDERGARTEN,RECORDED,KIND,KINDERGARTEN,145.285283,-37.783833,116502,,,,,,,,,,,,,,,,,,,,,,,,,,,,,,,,,,,,,,,
VIC,WHITTLESEA CITY,116748,CRYSTAL VIEWS CHILDCARE CENTRE,RECORDED,KIND,KINDERGARTEN,145.113037,-37.518058,116503,,,,,,,,,,,,,,,,,,,,,,,,,,,,,,,,,,,,,,,
VIC,MONASH CITY,116749,CSIRO CARE CLAYTON,RECORDED,KIND,KINDERGARTEN,145.132528,-37.907497,116504,,,,,,,,,,,,,,,,,,,,,,,,,,,,,,,,,,,,,,,
VIC,LATROBE CITY,118483,CUMBERLAND PARK KINDERGARTEN,RECORDED,KIND,KINDERGARTEN,146.515412,-38.196139,118238,,,,,,,,,,,,,,,,,,,,,,,,,,,,,,,,,,,,,,,
VIC,MELBOURNE CITY,116752,CURZON STREET CHILDRENS CENTRE,RECORDED,KIND,KINDERGARTEN,144.947736,-37.803722,116507,,,,,,,,,,,,,,,,,,,,,,,,,,,,,,,,,,,,,,,
VIC,LATROBE CITY,118484,DALA LIDJ -WOOLUM BELLUM KINDERGARTEN,RECORDED,KIND,KINDERGARTEN,146.405234,-38.231324,118239,,,,,,,,,,,,,,,,,,,,,,,,,,,,,,,,,,,,,,,
VIC,GLEN EIRA CITY,116753,DALMOR AVENUE EARLY LEARNING CENTRE,RECORDED,KIND,KINDERGARTEN,145.038276,-37.900521,116508,,,,,,,,,,,,,,,,,,,,,,,,,,,,,,,,,,,,,,,
VIC,WHITTLESEA CITY,116754,DALTON ROAD PRESCHOOL,RECORDED,KIND,KINDERGARTEN,145.0300152,-37.6760899,116509,,,,,,,,,,,,,,,,,,,,,,,,,,,,,,,,,,,,,,,
VIC,YARRA CITY,116755,DAME NELLIE MELBA KINDERGARTEN,RECORDED,KIND,KINDERGARTEN,144.993465,-37.819747,116510,,,,,,,,,,,,,,,,,,,,,,,,,,,,,,,,,,,,,,,
VIC,GREATER DANDENONG CITY,116758,DANDENONG KINDERGARTEN,RECORDED,KIND,KINDERGARTEN,145.215412,-37.991013,116513,,,,,,,,,,,,,,,,,,,,,,,,,,,,,,,,,,,,,,,
VIC,GREATER DANDENONG CITY,116759,DANDENONG NORTH EAST KINDERGARTEN,RECORDED,KIND,KINDERGARTEN,145.220528,-37.971205,116514,,,,,,,,,,,,,,,,,,,,,,,,,,,,,,,,,,,,,,,
VIC,GREATER DANDENONG CITY,116760,DANDENONG NORTH PRESCHOOL,RECORDED,KIND,KINDERGARTEN,145.212667,-37.963948,116515,,,,,,,,,,,,,,,,,,,,,,,,,,,,,,,,,,,,,,,
VIC,YARRA RANGES SHIRE,116763,DANDENONG RANGES STEINER SCHOOL KINDERGARTEN,RECORDED,KIND,KINDERGARTEN,145.407549,-37.921111,116518,,,,,,,,,,,,,,,,,,,,,,,,,,,,,,,,,,,,,,,
VIC,GREATER DANDENONG CITY,116764,DANDENONG SOUTH PRESCHOOL,RECORDED,KIND,KINDERGARTEN,145.207853,-37.996191,116519,,,,,,,,,,,,,,,,,,,,,,,,,,,,,,,,,,,,,,,
VIC,GREATER DANDENONG CITY,116765,DANDENONG WEST PRE-SCHOOL,RECORDED,KIND,KINDERGARTEN,145.204538,-37.982227,116520,,,,,,,,,,,,,,,,,,,,,,,,,,,,,,,,,,,,,,,
VIC,DAREBIN CITY,116766,DAREBIN CHILDCARE AND KINDERGARTEN INC -PRESTON,RECORDED,KIND,KINDERGARTEN,145.006859,-37.740573,116521,,,,,,,,,,,,,,,,,,,,,,,,,,,,,,,,,,,,,,,
VIC,DAREBIN CITY,116767,DAREBIN CHILDCARE AND KINDERGARTEN INC -RESERVOIR,RECORDED,KIND,KINDERGARTEN,145.006878,-37.714032,116522,,,,,,,,,,,,,,,,,,,,,,,,,,,,,,,,,,,,,,,
VIC,WELLINGTON SHIRE,118485,DARGO EARLY CHILDHOOD DEVELOPMENT CENTRE,RECORDED,KIND,KINDERGARTEN,147.250882,-37.455491,118240,,,,,,,,,,,,,,,,,,,,,,,,,,,,,,,,,,,,,,,
VIC,GREATER DANDENONG CITY,116768,DARREN RESERVE KINDERGARTEN,RECORDED,KIND,KINDERGARTEN,145.155229,-37.981162,116523,,,,,,,,,,,,,,,,,,,,,,,,,,,,,,,,,,,,,,,
VIC,CASEY CITY,116771,DAVID COLLINS KINDERGARTEN,RECORDED,KIND,KINDERGARTEN,145.264735,-37.98997,116526,,,,,,,,,,,,,,,,,,,,,,,,,,,,,,,,,,,,,,,
VIC,BOROONDARA CITY,116772,DAVIS STREET KINDERGARTEN,RECORDED,KIND,KINDERGARTEN,145.046689,-37.810524,116527,,,,,,,,,,,,,,,,,,,,,,,,,,,,,,,,,,,,,,,
VIC,HUME CITY,116774,DAWSON STREET PRESCHOOL,RECORDED,KIND,KINDERGARTEN,144.87717,-37.700908,116529,,,,,,,,,,,,,,,,,,,,,,,,,,,,,,,,,,,,,,,
VIC,HEPBURN SHIRE,106105,DAYLESFORD DHARMA SCHOOL,REGISTERED,KIND,KINDERGARTEN,144.135886,-37.339621,105864,,,,,,,,,,,,,,,,,,,,,,,,,,,,,,,,,,,,,,,
VIC,HEPBURN SHIRE,118489,DAYLESFORD PRESCHOOL,RECORDED,KIND,KINDERGARTEN,144.144435,-37.344034,118244,,,,,,,,,,,,,,,,,,,,,,,,,,,,,,,,,,,,,,,
VIC,MILDURA RURAL CITY,118490,DE GARIS PRESCHOOL,RECORDED,KIND,KINDERGARTEN,142.157106,-34.203465,118245,,,,,,,,,,,,,,,,,,,,,,,,,,,,,,,,,,,,,,,
VIC,WHITEHORSE CITY,116775,DEAKIN & COMMUNITY CHILDCARE CO-OPERATIVE,RECORDED,KIND,KINDERGARTEN,145.115833,-37.849461,116530,,,,,,,,,,,,,,,,,,,,,,,,,,,,,,,,,,,,,,,
VIC,MANNINGHAM CITY,116778,DEEP CREEK PRESCHOOL,RECORDED,KIND,KINDERGARTEN,145.167267,-37.760722,116533,,,,,,,,,,,,,,,,,,,,,,,,,,,,,,,,,,,,,,,
VIC,BOROONDARA CITY,116779,DEEPDENE PRESCHOOL,RECORDED,KIND,KINDERGARTEN,145.06914,-37.810335,116534,,,,,,,,,,,,,,,,,,,,,,,,,,,,,,,,,,,,,,,
VIC,BRIMBANK CITY,116780,DEER PARK CHILDRENS COMMUNITY CENTRE,RECORDED,KIND,KINDERGARTEN,144.775845,-37.771303,116535,,,,,,,,,,,,,,,,,,,,,,,,,,,,,,,,,,,,,,,
VIC,BRIMBANK CITY,116782,DEER PARK WEST KINDERGARTEN,RECORDED,KIND,KINDERGARTEN,144.764,-37.772971,116537,,,,,,,,,,,,,,,,,,,,,,,,,,,,,,,,,,,,,,,
VIC,BALLARAT CITY,118492,DELACOMBE COMMUNITY KINDERGARTEN,RECORDED,KIND,KINDERGARTEN,143.818404,-37.580169,118247,,,,,,,,,,,,,,,,,,,,,,,,,,,,,,,,,,,,,,,
VIC,FRANKSTON CITY,116784,DELACOMBE PARK PRESCHOOL,RECORDED,KIND,KINDERGARTEN,145.126336,-38.162689,116539,,,,,,,,,,,,,,,,,,,,,,,,,,,,,,,,,,,,,,,
VIC,BRIMBANK CITY,116785,DELAHEY CHILDRENS CENTRE,RECORDED,KIND,KINDERGARTEN,144.771719,-37.717204,116540,,,,,,,,,,,,,,,,,,,,,,,,,,,,,,,,,,,,,,,
VIC,BANYULE CITY,116786,DELTA ROAD PRESCHOOL,RECORDED,KIND,KINDERGARTEN,145.092013,-37.717012,116541,,,,,,,,,,,,,,,,,,,,,,,,,,,,,,,,,,,,,,,
VIC,WARRNAMBOOL CITY,118493,DENNINGTON & DISTRICT PRESCHOOL CENTRE,RECORDED,KIND,KINDERGARTEN,142.439116,-38.35724,118248,,,,,,,,,,,,,,,,,,,,,,,,,,,,,,,,,,,,,,,
VIC,WARRNAMBOOL CITY,107175,DENNINGTON KINDERGARTEN,RECORDED,KIND,KINDERGARTEN,142.4393322,-38.3573125,106930,,,,,,,,,,,,,,,,,,,,,,,,,,,,,,,,,,,,,,,
VIC,MORELAND CITY,116787,DENZIL DON FREE KINDERGARTEN,RECORDED,KIND,KINDERGARTEN,144.944511,-37.771547,116542,,,,,,,,,,,,,,,,,,,,,,,,,,,,,,,,,,,,,,,
VIC,WHITTLESEA CITY,116788,DERBY MEADOWS PRESCHOOL INC,RECORDED,KIND,KINDERGARTEN,145.0441,-37.642766,116543,,,,,,,,,,,,,,,,,,,,,,,,,,,,,,,,,,,,,,,
VIC,MORELAND CITY,116789,DERBY STREET CHILDRENS CENTRE,RECORDED,KIND,KINDERGARTEN,144.947042,-37.725807,116544,,,,,,,,,,,,,,,,,,,,,,,,,,,,,,,,,,,,,,,
VIC,HUME CITY,116790,DEREK ROBSON CHILDRENS SERVICES CENTRE,RECORDED,KIND,KINDERGARTEN,144.931455,-37.680396,116545,,,,,,,,,,,,,,,,,,,,,,,,,,,,,,,,,,,,,,,
VIC,CORANGAMITE SHIRE,118494,DERRINALLUM PRESCHOOL,RECORDED,KIND,KINDERGARTEN,143.21961,-37.947591,118249,,,,,,,,,,,,,,,,,,,,,,,,,,,,,,,,,,,,,,,
VIC,KINGSTON CITY,116791,DEVELOPMENTAL LEARNING CENTRE RAINBOW -MOORABBIN,RECORDED,KIND,KINDERGARTEN,145.053972,-37.943082,116546,,,,,,,,,,,,,,,,,,,,,,,,,,,,,,,,,,,,,,,
VIC,DAREBIN CITY,116792,DEWDROPS EARLY LEARNING,RECORDED,KIND,KINDERGARTEN,145.00826,-37.72004,116547,,,,,,,,,,,,,,,,,,,,,,,,,,,,,,,,,,,,,,,
VIC,MORELAND CITY,116793,DEWDROPS EARLY LEARNING -BRUNSWICK WEST,RECORDED,KIND,KINDERGARTEN,144.938784,-37.761318,116548,,,,,,,,,,,,,,,,,,,,,,,,,,,,,,,,,,,,,,,
VIC,NILLUMBIK SHIRE,116796,DIAMOND CREEK EAST PRESCHOOL,RECORDED,KIND,KINDERGARTEN,145.162378,-37.677588,116551,,,,,,,,,,,,,,,,,,,,,,,,,,,,,,,,,,,,,,,
VIC,NILLUMBIK SHIRE,116797,DIAMOND CREEK LIVING & LEARNING CENTRE,RECORDED,KIND,KINDERGARTEN,145.153008,-37.670557,116552,,,,,,,,,,,,,,,,,,,,,,,,,,,,,,,,,,,,,,,
VIC,NILLUMBIK SHIRE,116798,DIAMOND CREEK MEMORIAL PRESCHOOL,RECORDED,KIND,KINDERGARTEN,145.149365,-37.672476,116553,,,,,,,,,,,,,,,,,,,,,,,,,,,,,,,,,,,,,,,
VIC,NILLUMBIK SHIRE,116799,DIAMOND HILLS PRESCHOOL,RECORDED,KIND,KINDERGARTEN,145.113124,-37.687299,116554,,,,,,,,,,,,,,,,,,,,,,,,,,,,,,,,,,,,,,,
VIC,NILLUMBIK SHIRE,116800,DIAMOND VALLEY SPORTS & FITNESS CENTRE CHILDCARE SERVICE,RECORDED,KIND,KINDERGARTEN,145.110991,-37.6889,116555,,,,,,,,,,,,,,,,,,,,,,,,,,,,,,,,,,,,,,,
VIC,MELTON CITY,116801,DICKORY DOCK KIDS CHILDCARE,RECORDED,KIND,KINDERGARTEN,144.576236,-37.704195,116556,,,,,,,,,,,,,,,,,,,,,,,,,,,,,,,,,,,,,,,
VIC,MELTON CITY,116802,DIGGERS REST PRESCHOOL,RECORDED,KIND,KINDERGARTEN,144.709372,-37.622444,116557,,,,,,,,,,,,,,,,,,,,,,,,,,,,,,,,,,,,,,,
VIC,HINDMARSH SHIRE,118495,DIMBOOLA KINDERGARTEN,RECORDED,KIND,KINDERGARTEN,142.031658,-36.454572,118250,,,,,,,,,,,,,,,,,,,,,,,,,,,,,,,,,,,,,,,
VIC,HINDMARSH SHIRE,107170,DIMBOOLA KINDERGARTEN,RECORDED,KIND,KINDERGARTEN,142.0315639,-36.4546909,106925,,,,,,,,,,,,,,,,,,,,,,,,,,,,,,,,,,,,,,,
VIC,LODDON SHIRE,118496,DINGEE PRESCHOOL,RECORDED,KIND,KINDERGARTEN,144.142231,-36.371181,118251,,,,,,,,,,,,,,,,,,,,,,,,,,,,,,,,,,,,,,,
VIC,MANNINGHAM CITY,116804,DINKYS EARLY LEARNING CENTRE,RECORDED,KIND,KINDERGARTEN,145.110645,-37.781422,116559,,,,,,,,,,,,,,,,,,,,,,,,,,,,,,,,,,,,,,,
VIC,MELTON CITY,116805,DJ CUNNINGHAM OCCASIONAL CARE,RECORDED,KIND,KINDERGARTEN,144.573781,-37.70659,116560,,,,,,,,,,,,,,,,,,,,,,,,,,,,,,,,,,,,,,,
VIC,HUME CITY,116806,DOBELL AVENUE PRESCHOOL,RECORDED,KIND,KINDERGARTEN,144.704587,-37.577174,116561,,,,,,,,,,,,,,,,,,,,,,,,,,,,,,,,,,,,,,,
VIC,MARIBYRNONG CITY,116807,DOBSON KINDERGARTEN,RECORDED,KIND,KINDERGARTEN,144.873326,-37.787144,116562,,,,,,,,,,,,,,,,,,,,,,,,,,,,,,,,,,,,,,,
VIC,GREATER SHEPPARTON CITY,118497,DOLENA YOUNG KINDERGARTEN,RECORDED,KIND,KINDERGARTEN,145.405918,-36.367012,118252,,,,,,,,,,,,,,,,,,,,,,,,,,,,,,,,,,,,,,,
VIC,BULOKE SHIRE,118498,DONALD KINDERGARTEN,RECORDED,KIND,KINDERGARTEN,142.983479,-36.368758,118253,,,,,,,,,,,,,,,,,,,,,,,,,,,,,,,,,,,,,,,
VIC,MANNINGHAM CITY,116809,DONCASTER EAST DAYCARE & KINDERGARTEN,RECORDED,KIND,KINDERGARTEN,145.161154,-37.794586,116564,,,,,,,,,,,,,,,,,,,,,,,,,,,,,,,,,,,,,,,
VIC,MANNINGHAM CITY,116810,DONCASTER EAST PRESCHOOL CENTRE,RECORDED,KIND,KINDERGARTEN,145.162169,-37.789402,116565,,,,,,,,,,,,,,,,,,,,,,,,,,,,,,,,,,,,,,,
VIC,MANNINGHAM CITY,116811,DONCASTER GARDENS PRESCHOOL,RECORDED,KIND,KINDERGARTEN,145.144348,-37.781855,116566,,,,,,,,,,,,,,,,,,,,,,,,,,,,,,,,,,,,,,,
VIC,MANNINGHAM CITY,116812,DONCASTER KINDERGARTEN,RECORDED,KIND,KINDERGARTEN,145.131037,-37.786665,116567,,,,,,,,,,,,,,,,,,,,,,,,,,,,,,,,,,,,,,,
VIC,MANNINGHAM CITY,116813,DONCASTER PARK KINDERGARTEN,RECORDED,KIND,KINDERGARTEN,145.11348,-37.782331,116568,,,,,,,,,,,,,,,,,,,,,,,,,,,,,,,,,,,,,,,
VIC,MANNINGHAM CITY,116814,DONVALE PRESCHOOL,RECORDED,KIND,KINDERGARTEN,145.181151,-37.800232,116569,,,,,,,,,,,,,,,,,,,,,,,,,,,,,,,,,,,,,,,
VIC,GREATER SHEPPARTON CITY,118499,DOOKIE CHILDRENS CENTRE,RECORDED,KIND,KINDERGARTEN,145.68726,-36.327322,118254,,,,,,,,,,,,,,,,,,,,,,,,,,,,,,,,,,,,,,,
VIC,MORELAND CITY,116815,DORIS BLACKBURN PRESCHOOL CENTRE,RECORDED,KIND,KINDERGARTEN,144.942595,-37.749146,116570,,,,,,,,,,,,,,,,,,,,,,,,,,,,,,,,,,,,,,,
VIC,BRIMBANK CITY,116817,DOROTHY CARLTON PRESCHOOL INC,RECORDED,KIND,KINDERGARTEN,144.825935,-37.762396,116572,,,,,,,,,,,,,,,,,,,,,,,,,,,,,,,,,,,,,,,
VIC,MAROONDAH CITY,116818,DORSET EARLY LEARNING & KINDERGARTEN,RECORDED,KIND,KINDERGARTEN,145.291393,-37.790699,116573,,,,,,,,,,,,,,,,,,,,,,,,,,,,,,,,,,,,,,,
VIC,PORT PHILLIP CITY,116819,DOT 2 DOT EARLY LEARNING CENTRE,RECORDED,KIND,KINDERGARTEN,144.967539,-37.833716,116574,,,,,,,,,,,,,,,,,,,,,,,,,,,,,,,,,,,,,,,
VIC,MONASH CITY,116820,DOVER STREET PRESCHOOL,RECORDED,KIND,KINDERGARTEN,145.121198,-37.90998,116575,,,,,,,,,,,,,,,,,,,,,,,,,,,,,,,,,,,,,,,
VIC,WYNDHAM CITY,116823,DR CHARLES PROUSE MEMORIAL KINDERGARTEN,RECORDED,KIND,KINDERGARTEN,144.658836,-37.910313,116578,,,,,,,,,,,,,,,,,,,,,,,,,,,,,,,,,,,,,,,
VIC,GREATER BENDIGO CITY,118500,DR HARRY LITTLE PRESCHOOL,RECORDED,KIND,KINDERGARTEN,144.273287,-36.754652,118255,,,,,,,,,,,,,,,,,,,,,,,,,,,,,,,,,,,,,,,
VIC,WHITEHORSE CITY,116824,DR STANLEY COCHRANE MEMORIAL PRESCHOOL,RECORDED,KIND,KINDERGARTEN,145.193507,-37.809597,116579,,,,,,,,,,,,,,,,,,,,,,,,,,,,,,,,,,,,,,,
VIC,MORNINGTON PENINSULA SHIRE,116827,DROMANA PRESCHOOL,RECORDED,KIND,KINDERGARTEN,144.970233,-38.335974,116582,,,,,,,,,,,,,,,,,,,,,,,,,,,,,,,,,,,,,,,
VIC,BAW BAW SHIRE,118501,DROUIN CHILDCARE CENTRE,RECORDED,KIND,KINDERGARTEN,145.846317,-38.126975,118256,,,,,,,,,,,,,,,,,,,,,,,,,,,,,,,,,,,,,,,
VIC,BAW BAW SHIRE,118502,DROUIN KINDERGARTEN,RECORDED,KIND,KINDERGARTEN,145.848037,-38.13512,118257,,,,,,,,,,,,,,,,,,,,,,,,,,,,,,,,,,,,,,,
VIC,GREATER GEELONG CITY,116828,DRYSDALE PRESCHOOL,RECORDED,KIND,KINDERGARTEN,144.569473,-38.174474,116583,,,,,,,,,,,,,,,,,,,,,,,,,,,,,,,,,,,,,,,
VIC,MITCHELL SHIRE,118503,DUDLEY STREET CHILDCARE AND KINDERGARTEN,RECORDED,KIND,KINDERGARTEN,144.973449,-37.413868,118258,,,,,,,,,,,,,,,,,,,,,,,,,,,,,,,,,,,,,,,
VIC,WELLINGTON SHIRE,118504,DUKE STREET CHILDRENS CENTRE,RECORDED,KIND,KINDERGARTEN,146.970719,-37.964065,118259,,,,,,,,,,,,,,,,,,,,,,,,,,,,,,,,,,,,,,,
VIC,SOUTHERN GRAMPIANS SHIRE,118505,DUNKELD KINDERGARTEN,RECORDED,KIND,KINDERGARTEN,142.344828,-37.650693,118260,,,,,,,,,,,,,,,,,,,,,,,,,,,,,,,,,,,,,,,
VIC,CENTRAL GOLDFIELDS SHIRE,118506,DUNOLLY KINDERGARTEN,RECORDED,KIND,KINDERGARTEN,143.729668,-36.860147,118261,,,,,,,,,,,,,,,,,,,,,,,,,,,,,,,,,,,,,,,
VIC,MAROONDAH CITY,116831,EACH CHILD COMMUNITY CHILD & FAMILY CENTRE,RECORDED,KIND,KINDERGARTEN,145.251256,-37.811081,116586,,,,,,,,,,,,,,,,,,,,,,,,,,,,,,,,,,,,,,,
VIC,MAROONDAH CITY,116832,EACH CHILD OCCASIONAL CARE,RECORDED,KIND,KINDERGARTEN,145.251256,-37.811081,116587,,,,,,,,,,,,,,,,,,,,,,,,,,,,,,,,,,,,,,,
VIC,GREATER BENDIGO CITY,118507,EAGLEHAWK PRESCHOOL,RECORDED,KIND,KINDERGARTEN,144.259584,-36.720603,118262,,,,,,,,,,,,,,,,,,,,,,,,,,,,,,,,,,,,,,,
VIC,GREATER DANDENONG CITY,116833,EARLY BEGINNERS,RECORDED,KIND,KINDERGARTEN,145.152629,-37.962291,116588,,,,,,,,,,,,,,,,,,,,,,,,,,,,,,,,,,,,,,,
VIC,HOBSONS BAY CITY,116834,EARLY LEARNERS,RECORDED,KIND,KINDERGARTEN,144.87867,-37.842185,116589,,,,,,,,,,,,,,,,,,,,,,,,,,,,,,,,,,,,,,,
VIC,GREATER GEELONG CITY,116835,EARLY LEARNING - ROSEWALL,RECORDED,KIND,KINDERGARTEN,144.372991,-38.064519,116590,,,,,,,,,,,,,,,,,,,,,,,,,,,,,,,,,,,,,,,
VIC,GREATER GEELONG CITY,116836,EARLY LEARNING AND FAMILY CENTRE - APOLLO,RECORDED,KIND,KINDERGARTEN,144.395334,-38.179288,116591,,,,,,,,,,,,,,,,,,,,,,,,,,,,,,,,,,,,,,,
VIC,LATROBE CITY,118508,EARLY LEARNING CENTRE ALBERT STREET MOE,RECORDED,KIND,KINDERGARTEN,146.258734,-38.174591,118263,,,,,,,,,,,,,,,,,,,,,,,,,,,,,,,,,,,,,,,
VIC,BOROONDARA CITY,116837,EARLY LEARNING CENTRE ASHBURTON,RECORDED,KIND,KINDERGARTEN,145.089271,-37.861761,116592,,,,,,,,,,,,,,,,,,,,,,,,,,,,,,,,,,,,,,,
VIC,MOORABOOL SHIRE,118509,EARLY LEARNING CENTRE BACCHUS MARSH,RECORDED,KIND,KINDERGARTEN,144.431477,-37.658267,118264,,,,,,,,,,,,,,,,,,,,,,,,,,,,,,,,,,,,,,,
VIC,NILLUMBIK SHIRE,116838,EARLY LEARNING CENTRE DIAMOND CREEK,RECORDED,KIND,KINDERGARTEN,145.162663,-37.674829,116593,,,,,,,,,,,,,,,,,,,,,,,,,,,,,,,,,,,,,,,
VIC,CASEY CITY,116839,EARLY LEARNING CENTRE HUNT CLUB CRANBOURNE EAST,RECORDED,KIND,KINDERGARTEN,145.301122,-38.1058,116594,,,,,,,,,,,,,,,,,,,,,,,,,,,,,,,,,,,,,,,
VIC,CAMPASPE SHIRE,118510,EARLY LEARNING CENTRE KYABRAM,RECORDED,KIND,KINDERGARTEN,145.043756,-36.310727,118265,,,,,,,,,,,,,,,,,,,,,,,,,,,,,,,,,,,,,,,
VIC,EAST GIPPSLAND SHIRE,118511,EARLY LEARNING CENTRE LAKES ENTRANCE,RECORDED,KIND,KINDERGARTEN,147.99487,-37.875817,118266,,,,,,,,,,,,,,,,,,,,,,,,,,,,,,,,,,,,,,,
VIC,CARDINIA SHIRE,116840,EARLY LEARNING CENTRE PAKENHAM NORTH,RECORDED,KIND,KINDERGARTEN,145.49689,-38.060047,116595,,,,,,,,,,,,,,,,,,,,,,,,,,,,,,,,,,,,,,,
VIC,WYNDHAM CITY,116841,EARLY LEARNING CENTRE ROSE GRANGE,RECORDED,KIND,KINDERGARTEN,144.695268,-37.841379,116596,,,,,,,,,,,,,,,,,,,,,,,,,,,,,,,,,,,,,,,
VIC,NORTHERN GRAMPIANS SHIRE,118512,EARLY LEARNING CENTRE STAWELL,RECORDED,KIND,KINDERGARTEN,142.770692,-37.054698,118267,,,,,,,,,,,,,,,,,,,,,,,,,,,,,,,,,,,,,,,
VIC,MANNINGHAM CITY,116842,EARLY LEARNING CENTRE TEMPLESTOWE,RECORDED,KIND,KINDERGARTEN,145.141032,-37.753706,116597,,,,,,,,,,,,,,,,,,,,,,,,,,,,,,,,,,,,,,,
VIC,WYNDHAM CITY,116843,EARLY LEARNING CENTRE WERRIBEE,RECORDED,KIND,KINDERGARTEN,144.633961,-37.894722,116598,,,,,,,,,,,,,,,,,,,,,,,,,,,,,,,,,,,,,,,
VIC,BAYSIDE CITY,116845,EAST BEAUMARIS KINDERGARTEN,RECORDED,KIND,KINDERGARTEN,145.05015,-37.983088,116600,,,,,,,,,,,,,,,,,,,,,,,,,,,,,,,,,,,,,,,
VIC,MORELAND CITY,116847,EAST BRUNSWICK KINDERGARTEN,RECORDED,KIND,KINDERGARTEN,144.980483,-37.772736,116602,,,,,,,,,,,,,,,,,,,,,,,,,,,,,,,,,,,,,,,
VIC,WHITEHORSE CITY,116848,EAST BURWOOD PRESCHOOL,RECORDED,KIND,KINDERGARTEN,145.151467,-37.850712,116603,,,,,,,,,,,,,,,,,,,,,,,,,,,,,,,,,,,,,,,
VIC,EAST GIPPSLAND SHIRE,118279,EAST GIPPSLAND FAMILY DAY CARE,RECORDED,KIND,KINDERGARTEN,147.6250079,-37.8283008,118034,,,,,,,,,,,,,,,,,,,,,,,,,,,,,,,,,,,,,,,
VIC,BANYULE CITY,116849,EAST IVANHOE EARLY LEARNING CENTRE,RECORDED,KIND,KINDERGARTEN,145.047097,-37.771619,116604,,,,,,,,,,,,,,,,,,,,,,,,,,,,,,,,,,,,,,,
VIC,BANYULE CITY,116850,EAST IVANHOE PRESCHOOL,RECORDED,KIND,KINDERGARTEN,145.062035,-37.771008,116605,,,,,,,,,,,,,,,,,,,,,,,,,,,,,,,,,,,,,,,
VIC,STONNINGTON CITY,116852,EAST MALVERN EARLY LEARNING CENTRE,RECORDED,KIND,KINDERGARTEN,145.06162,-37.869338,116607,,,,,,,,,,,,,,,,,,,,,,,,,,,,,,,,,,,,,,,
VIC,LATROBE CITY,118513,EAST NEWBOROUGH KINDERGARTEN,RECORDED,KIND,KINDERGARTEN,146.299115,-38.176905,118268,,,,,,,,,,,,,,,,,,,,,,,,,,,,,,,,,,,,,,,
VIC,DAREBIN CITY,116853,EAST PRESTON UNITING CHURCH PRESCHOOL CENTRE,RECORDED,KIND,KINDERGARTEN,145.019354,-37.737548,116608,,,,,,,,,,,,,,,,,,,,,,,,,,,,,,,,,,,,,,,
VIC,WELLINGTON SHIRE,118515,EAST SALE KINDERGARTEN,RECORDED,KIND,KINDERGARTEN,147.130405,-38.10446,118270,,,,,,,,,,,,,,,,,,,,,,,,,,,,,,,,,,,,,,,
VIC,BRIMBANK CITY,116854,EAST SUNSHINE KINDERGARTEN,RECORDED,KIND,KINDERGARTEN,144.844719,-37.787665,116609,,,,,,,,,,,,,,,,,,,,,,,,,,,,,,,,,,,,,,,
VIC,WARRNAMBOOL CITY,107176,EAST WARRNAMBOOL KINDERGARTEN,RECORDED,KIND,KINDERGARTEN,142.4963959,-38.3866497,106931,,,,,,,,,,,,,,,,,,,,,,,,,,,,,,,,,,,,,,,
VIC,WHITEHORSE CITY,116856,EASTMONT PRESCHOOL,RECORDED,KIND,KINDERGARTEN,145.20963,-37.835275,116611,,,,,,,,,,,,,,,,,,,,,,,,,,,,,,,,,,,,,,,
VIC,HOBSONS BAY CITY,60045,EASTONA PARK KINDERGARTEN,REGISTERED,KIND,KINDERGARTEN,144.8591667,-37.8369444,60040,"Previously known as Altona East Kindergarten, the name was changed to align with the name of the nearby primary school.",,,,,,,OGN,,,,,,,,,,,,,,,,,,,,,,,,,,,,,,Hobsons Bay City Council,
VIC,EAST GIPPSLAND SHIRE,118516,EASTWOOD CHILDCARE & KINDER,RECORDED,KIND,KINDERGARTEN,147.641414,-37.808422,118271,,,,,,,,,,,,,,,,,,,,,,,,,,,,,,,,,,,,,,,
VIC,CAMPASPE SHIRE,118517,ECHUCA CENTRAL KINDERGARTEN,RECORDED,KIND,KINDERGARTEN,144.746035,-36.127123,118272,,,,,,,,,,,,,,,,,,,,,,,,,,,,,,,,,,,,,,,
VIC,CAMPASPE SHIRE,118518,ECHUCA EAST PRESCHOOL,RECORDED,KIND,KINDERGARTEN,144.763096,-36.134366,118273,,,,,,,,,,,,,,,,,,,,,,,,,,,,,,,,,,,,,,,
VIC,GREATER SHEPPARTON CITY,118519,ECHUCA ROAD KINDERGARTEN,RECORDED,KIND,KINDERGARTEN,145.352225,-36.380562,118274,,,,,,,,,,,,,,,,,,,,,,,,,,,,,,,,,,,,,,,
VIC,CAMPASPE SHIRE,119501,ECHUCA SOUTH COMMUNITY PRESCHOOL,RECORDED,KIND,KINDERGARTEN,144.752992,-36.146202,119114,,,,,,,,,,,,,,,,,,,,,,,,,,,,,,,,,,,,,,,
VIC,WEST WIMMERA SHIRE,119504,EDENHOPE KINDERGARTEN,RECORDED,KIND,KINDERGARTEN,141.299998,-37.036923,119117,,,,,,,,,,,,,,,,,,,,,,,,,,,,,,,,,,,,,,,
VIC,WEST WIMMERA SHIRE,107166,EDENHOPE KINDERGARTEN,RECORDED,KIND,KINDERGARTEN,141.2996776,-37.0368251,106921,,,,,,,,,,,,,,,,,,,,,,,,,,,,,,,,,,,,,,,
VIC,YARRA RANGES SHIRE,116859,EDINBURGH EARLY LEARNING CENTRE,RECORDED,KIND,KINDERGARTEN,145.350775,-37.784814,116614,,,,,,,,,,,,,,,,,,,,,,,,,,,,,,,,,,,,,,,
VIC,KINGSTON CITY,119806,EDITHVALE FAMILY AND CHILDRENS CENTRE,RECORDED,KIND,KINDERGARTEN,145.1183333,-38.0361111,119404,,,,,,,,,,,,,,,,,,,,,,,,,,,,,,,,,,,,,,,
VIC,KINGSTON CITY,116860,EDITHVALE PRESCHOOL CENTRE,RECORDED,KIND,KINDERGARTEN,145.112801,-38.039556,116615,,,,,,,,,,,,,,,,,,,,,,,,,,,,,,,,,,,,,,,
VIC,WHITTLESEA CITY,116862,EDUCATION PROGRAM FOR INFANTS & CHILDREN,RECORDED,KIND,KINDERGARTEN,145.058066,-37.699621,116617,,,,,,,,,,,,,,,,,,,,,,,,,,,,,,,,,,,,,,,
VIC,WHITTLESEA CITY,116864,EDWARD STREET PRESCHOOL,RECORDED,KIND,KINDERGARTEN,145.053662,-37.698863,116619,,,,,,,,,,,,,,,,,,,,,,,,,,,,,,,,,,,,,,,
VIC,DAREBIN CITY,116865,EDWARDES STREET CHILD MINDING,RECORDED,KIND,KINDERGARTEN,145.004582,-37.716328,116620,,,,,,,,,,,,,,,,,,,,,,,,,,,,,,,,,,,,,,,
VIC,MURRINDINDI SHIRE,119505,EILDON AND DISTRICT KINDERGARTEN,RECORDED,KIND,KINDERGARTEN,145.905844,-37.234499,119118,,,,,,,,,,,,,,,,,,,,,,,,,,,,,,,,,,,,,,,
VIC,KNOX CITY,116866,EILDON PARADE PRESCHOOL,RECORDED,KIND,KINDERGARTEN,145.253832,-37.919543,116621,,,,,,,,,,,,,,,,,,,,,,,,,,,,,,,,,,,,,,,
VIC,MOIRA SHIRE,119506,EILLEEN TAYLOR KINDERGARTEN,RECORDED,KIND,KINDERGARTEN,145.651577,-35.918438,119119,,,,,,,,,,,,,,,,,,,,,,,,,,,,,,,,,,,,,,,
VIC,MANNINGHAM CITY,116868,ELGAR COURT OCCASIONAL CARE CENTRE,RECORDED,KIND,KINDERGARTEN,145.124298,-37.788122,116623,,,,,,,,,,,,,,,,,,,,,,,,,,,,,,,,,,,,,,,
VIC,HUME CITY,116870,ELIZABETH DRIVE CHILD AND FAMILY CENTRE,RECORDED,KIND,KINDERGARTEN,144.710972,-37.577653,116625,,,,,,,,,,,,,,,,,,,,,,,,,,,,,,,,,,,,,,,
VIC,PYRENEES SHIRE,119507,ELIZABETH WATKIN KINDERGARTEN,RECORDED,KIND,KINDERGARTEN,143.38266,-37.43062,119120,,,,,,,,,,,,,,,,,,,,,,,,,,,,,,,,,,,,,,,
VIC,LATROBE CITY,119508,ELIZABETH WILMOT KINDERGARTEN,RECORDED,KIND,KINDERGARTEN,146.421138,-38.221387,119121,,,,,,,,,,,,,,,,,,,,,,,,,,,,,,,,,,,,,,,
VIC,WHITEHORSE CITY,116871,ELLAND AVENUE OCCASIONAL CARE,RECORDED,KIND,KINDERGARTEN,145.123025,-37.816704,116626,,,,,,,,,,,,,,,,,,,,,,,,,,,,,,,,,,,,,,,
VIC,MAROONDAH CITY,116872,ELLIE V PULLIN KINDERGARTEN,RECORDED,KIND,KINDERGARTEN,145.240307,-37.785444,116627,,,,,,,,,,,,,,,,,,,,,,,,,,,,,,,,,,,,,,,
VIC,BAYSIDE CITY,116873,ELLINIKI EARLY LEARNING CENTRE,RECORDED,KIND,KINDERGARTEN,145.046073,-37.980484,116628,,,,,,,,,,,,,,,,,,,,,,,,,,,,,,,,,,,,,,,
VIC,GREATER BENDIGO CITY,119509,ELMORE AND DISTRICT PRESCHOOL,RECORDED,KIND,KINDERGARTEN,144.611045,-36.495118,119122,,,,,,,,,,,,,,,,,,,,,,,,,,,,,,,,,,,,,,,
VIC,KINGSTON CITY,116874,ELONERA PRESCHOOL,RECORDED,KIND,KINDERGARTEN,145.088545,-37.992195,116629,,,,,,,,,,,,,,,,,,,,,,,,,,,,,,,,,,,,,,,
VIC,GLENELG SHIRE,119510,ELSA MACLEOD KINDERGARTEN,RECORDED,KIND,KINDERGARTEN,141.598747,-38.345928,119123,,,,,,,,,,,,,,,,,,,,,,,,,,,,,,,,,,,,,,,
VIC,NILLUMBIK SHIRE,116878,ELTHAM LEARNING CENTRE FOR CHILDREN,RECORDED,KIND,KINDERGARTEN,145.162721,-37.703254,116633,,,,,,,,,,,,,,,,,,,,,,,,,,,,,,,,,,,,,,,
VIC,NILLUMBIK SHIRE,116881,ELTHAM NORTH PRESCHOOL,RECORDED,KIND,KINDERGARTEN,145.144005,-37.698185,116636,,,,,,,,,,,,,,,,,,,,,,,,,,,,,,,,,,,,,,,
VIC,NILLUMBIK SHIRE,116883,ELTHAM PRESCHOOL,RECORDED,KIND,KINDERGARTEN,145.147525,-37.715405,116638,,,,,,,,,,,,,,,,,,,,,,,,,,,,,,,,,,,,,,,
VIC,NILLUMBIK SHIRE,116884,ELTHAM SOUTH PRESCHOOL,RECORDED,KIND,KINDERGARTEN,145.149523,-37.727878,116639,,,,,,,,,,,,,,,,,,,,,,,,,,,,,,,,,,,,,,,
VIC,NILLUMBIK SHIRE,116886,ELTHAM WOODS PRESCHOOL,RECORDED,KIND,KINDERGARTEN,145.167215,-37.707903,116641,,,,,,,,,,,,,,,,,,,,,,,,,,,,,,,,,,,,,,,
VIC,PORT PHILLIP CITY,116887,ELWOOD CHILDRENS CENTRE,RECORDED,KIND,KINDERGARTEN,144.987349,-37.87367,116642,,,,,,,,,,,,,,,,,,,,,,,,,,,,,,,,,,,,,,,
VIC,MONASH CITY,116889,ELWYN MOREY CHILD STUDY CENTRE,RECORDED,KIND,KINDERGARTEN,145.133893,-37.913596,116644,,,,,,,,,,,,,,,,,,,,,,,,,,,,,,,,,,,,,,,
VIC,CARDINIA SHIRE,116891,EMERALD PRESCHOOL,RECORDED,KIND,KINDERGARTEN,145.443049,-37.932212,116646,,,,,,,,,,,,,,,,,,,,,,,,,,,,,,,,,,,,,,,
VIC,HOBSONS BAY CITY,116892,EMMA MCLEAN KINDERGARTEN & DAYCARE INC,RECORDED,KIND,KINDERGARTEN,144.886282,-37.827525,116647,,,,,,,,,,,,,,,,,,,,,,,,,,,,,,,,,,,,,,,
VIC,MONASH CITY,116893,EMMANUEL ANGLICAN KINDERGARTEN,RECORDED,KIND,KINDERGARTEN,145.090058,-37.906518,116648,,,,,,,,,,,,,,,,,,,,,,,,,,,,,,,,,,,,,,,
VIC,WODONGA CITY,119511,EMOHRUO CHILDRENS CENTRE,RECORDED,KIND,KINDERGARTEN,146.862001,-36.11281,119124,,,,,,,,,,,,,,,,,,,,,,,,,,,,,,,,,,,,,,,
VIC,CASEY CITY,116894,ENDEAVOUR HILLS CHILDCARE CENTRE,RECORDED,KIND,KINDERGARTEN,145.261939,-37.975969,116649,,,,,,,,,,,,,,,,,,,,,,,,,,,,,,,,,,,,,,,
VIC,BALLARAT CITY,119512,ENID ROGERS JUBILEE KINDERGARTEN,RECORDED,KIND,KINDERGARTEN,143.831038,-37.54299,119125,,,,,,,,,,,,,,,,,,,,,,,,,,,,,,,,,,,,,,,
VIC,BRIMBANK CITY,116898,EPALOCK CRESCENT KINDERGARTEN,RECORDED,KIND,KINDERGARTEN,144.805838,-37.760926,116653,,,,,,,,,,,,,,,,,,,,,,,,,,,,,,,,,,,,,,,
VIC,WHITTLESEA CITY,116899,EPPING NORTH PRESCHOOL,RECORDED,KIND,KINDERGARTEN,145.05885,-37.643001,116654,,,,,,,,,,,,,,,,,,,,,,,,,,,,,,,,,,,,,,,
VIC,WHITTLESEA CITY,116900,EPPING PRESCHOOL,RECORDED,KIND,KINDERGARTEN,145.025326,-37.641791,116655,,,,,,,,,,,,,,,,,,,,,,,,,,,,,,,,,,,,,,,
VIC,GREATER BENDIGO CITY,119513,EPSOM PRESCHOOL,RECORDED,KIND,KINDERGARTEN,144.321019,-36.709585,119126,,,,,,,,,,,,,,,,,,,,,,,,,,,,,,,,,,,,,,,
VIC,BAW BAW SHIRE,119514,ERICA KINDERGARTEN,RECORDED,KIND,KINDERGARTEN,146.372102,-37.976956,119127,,,,,,,,,,,,,,,,,,,,,,,,,,,,,,,,,,,,,,,
VIC,FRANKSTON CITY,116902,ERINWOOD PRESCHOOL,RECORDED,KIND,KINDERGARTEN,145.155049,-38.164128,116657,,,,,,,,,,,,,,,,,,,,,,,,,,,,,,,,,,,,,,,
VIC,MOONEE VALLEY CITY,116903,ESSENDON KIDS,RECORDED,KIND,KINDERGARTEN,144.90883,-37.743267,116658,,,,,,,,,,,,,,,,,,,,,,,,,,,,,,,,,,,,,,,
VIC,BOROONDARA CITY,116905,ESTRELLA PRESCHOOL,RECORDED,KIND,KINDERGARTEN,145.075113,-37.868956,116660,,,,,,,,,,,,,,,,,,,,,,,,,,,,,,,,,,,,,,,
VIC,STRATHBOGIE SHIRE,119515,EUROA KINDERGARTEN,RECORDED,KIND,KINDERGARTEN,145.573076,-36.75225,119128,,,,,,,,,,,,,,,,,,,,,,,,,,,,,,,,,,,,,,,
VIC,KINGSTON CITY,116907,EVESHAM ROAD PRESCHOOL,RECORDED,KIND,KINDERGARTEN,145.068161,-37.970062,116662,,,,,,,,,,,,,,,,,,,,,,,,,,,,,,,,,,,,,,,
VIC,STONNINGTON CITY,116908,EWING KINDERGARTEN,RECORDED,KIND,KINDERGARTEN,145.048873,-37.873354,116663,,,,,,,,,,,,,,,,,,,,,,,,,,,,,,,,,,,,,,,
VIC,KNOX CITY,116909,F W KERR KINDERGARTEN,RECORDED,KIND,KINDERGARTEN,145.289586,-37.895105,116664,,,,,,,,,,,,,,,,,,,,,,,,,,,,,,,,,,,,,,,
VIC,WHITEHORSE CITY,116910,FABULOUS KIDS PTY LTD,RECORDED,KIND,KINDERGARTEN,145.137398,-37.844166,116665,,,,,,,,,,,,,,,,,,,,,,,,,,,,,,,,,,,,,,,
VIC,BRIMBANK CITY,116911,FAIRBAIRN ROAD KINDERGARTEN,RECORDED,KIND,KINDERGARTEN,144.818675,-37.797232,116666,,,,,,,,,,,,,,,,,,,,,,,,,,,,,,,,,,,,,,,
VIC,BANYULE CITY,116912,FAIRY HILLS KINDERGARTEN,RECORDED,KIND,KINDERGARTEN,145.039921,-37.778248,116667,,,,,,,,,,,,,,,,,,,,,,,,,,,,,,,,,,,,,,,
VIC,HUME CITY,116913,FARM RIDGE PRESCHOOL,RECORDED,KIND,KINDERGARTEN,144.894207,-37.682433,116668,,,,,,,,,,,,,,,,,,,,,,,,,,,,,,,,,,,,,,,
VIC,KINGSTON CITY,116914,FARM ROAD PRESCHOOL,RECORDED,KIND,KINDERGARTEN,145.081045,-37.963163,116669,,,,,,,,,,,,,,,,,,,,,,,,,,,,,,,,,,,,,,,
VIC,MORELAND CITY,116915,FAWKNER KINDERGARTEN,RECORDED,KIND,KINDERGARTEN,144.964534,-37.707352,116670,,,,,,,,,,,,,,,,,,,,,,,,,,,,,,,,,,,,,,,
VIC,MORELAND CITY,116916,FAWKNER KINDERGARTEN -JUKES ROAD CAMPUS,RECORDED,KIND,KINDERGARTEN,144.96927,-37.703999,116671,,,,,,,,,,,,,,,,,,,,,,,,,,,,,,,,,,,,,,,
VIC,STONNINGTON CITY,116918,FAWKNER PARK CHILDRENS CENTRE,RECORDED,KIND,KINDERGARTEN,144.988682,-37.838439,116673,,,,,,,,,,,,,,,,,,,,,,,,,,,,,,,,,,,,,,,
VIC,WODONGA CITY,119518,FELLTIMBER CHILDRENS CENTRE,RECORDED,KIND,KINDERGARTEN,146.865877,-36.127392,119131,,,,,,,,,,,,,,,,,,,,,,,,,,,,,,,,,,,,,,,
VIC,STONNINGTON CITY,116921,FENWICK STREET KINDERGARTEN,RECORDED,KIND,KINDERGARTEN,145.077958,-37.881677,116676,,,,,,,,,,,,,,,,,,,,,,,,,,,,,,,,,,,,,,,
VIC,NILLUMBIK SHIRE,116922,FERGUSON PARK KINDERGARTEN,RECORDED,KIND,KINDERGARTEN,145.192501,-37.637958,116677,,,,,,,,,,,,,,,,,,,,,,,,,,,,,,,,,,,,,,,
VIC,YARRA RANGES SHIRE,116923,FERNHILL PRESCHOOL,RECORDED,KIND,KINDERGARTEN,145.383685,-37.77623,116678,,,,,,,,,,,,,,,,,,,,,,,,,,,,,,,,,,,,,,,
VIC,KNOX CITY,116924,FERNTREE GULLY CHILDRENS CENTRE,RECORDED,KIND,KINDERGARTEN,145.282107,-37.883458,116679,,,,,,,,,,,,,,,,,,,,,,,,,,,,,,,,,,,,,,,
VIC,GREATER DANDENONG CITY,116928,FIFTH AVENUE DAY CARE CENTRE,RECORDED,KIND,KINDERGARTEN,145.204901,-37.982171,116683,,,,,,,,,,,,,,,,,,,,,,,,,,,,,,,,,,,,,,,
VIC,GLEN EIRA CITY,116929,FINK KARP IVANY EARLY LEARNING CENTRE,RECORDED,KIND,KINDERGARTEN,145.033467,-37.899414,116684,,,,,,,,,,,,,,,,,,,,,,,,,,,,,,,,,,,,,,,
VIC,BOROONDARA CITY,116930,FINTONA EARLY LEARNING CENTRE,RECORDED,KIND,KINDERGARTEN,145.081088,-37.815226,116685,,,,,,,,,,,,,,,,,,,,,,,,,,,,,,,,,,,,,,,
VIC,PORT PHILLIP CITY,116933,FIRST LEARNINGS ST KILDA EAST,RECORDED,KIND,KINDERGARTEN,144.995903,-37.865516,116688,,,,,,,,,,,,,,,,,,,,,,,,,,,,,,,,,,,,,,,
VIC,SOUTH GIPPSLAND SHIRE,119520,FISH CREEK KINDERGARTEN,RECORDED,KIND,KINDERGARTEN,146.129458,-38.832069,119133,,,,,,,,,,,,,,,,,,,,,,,,,,,,,,,,,,,,,,,
VIC,YARRA CITY,116935,FITZROY POOL OCCASIONAL CARE,RECORDED,KIND,KINDERGARTEN,144.981239,-37.793823,116690,,,,,,,,,,,,,,,,,,,,,,,,,,,,,,,,,,,,,,,
VIC,KNOX CITY,116937,FLAMINGO PRESCHOOL,RECORDED,KIND,KINDERGARTEN,145.222767,-37.867439,116692,,,,,,,,,,,,,,,,,,,,,,,,,,,,,,,,,,,,,,,
VIC,CASEY CITY,116938,FLEETWOOD KINDERGARTEN,RECORDED,KIND,KINDERGARTEN,145.318975,-38.039197,116693,,,,,,,,,,,,,,,,,,,,,,,,,,,,,,,,,,,,,,,
VIC,MOONEE VALLEY CITY,116940,FLEMINGTON COMMUNITY CENTRE OCCASIONAL CARE,RECORDED,KIND,KINDERGARTEN,144.935051,-37.786183,116695,,,,,,,,,,,,,,,,,,,,,,,,,,,,,,,,,,,,,,,
VIC,MOONEE VALLEY CITY,116942,FLEMINGTON STREET CHILDRENS CENTRE,RECORDED,KIND,KINDERGARTEN,144.934181,-37.780952,116697,,,,,,,,,,,,,,,,,,,,,,,,,,,,,,,,,,,,,,,
VIC,GREATER GEELONG CITY,116943,FLINDERS KINDERGARTEN,RECORDED,KIND,KINDERGARTEN,144.39465,-38.021774,116698,,,,,,,,,,,,,,,,,,,,,,,,,,,,,,,,,,,,,,,
VIC,MORNINGTON PENINSULA SHIRE,116944,FLINDERS PRESCHOOL,RECORDED,KIND,KINDERGARTEN,145.014963,-38.473908,116699,,,,,,,,,,,,,,,,,,,,,,,,,,,,,,,,,,,,,,,
VIC,WARRNAMBOOL CITY,107177,FLORENCE COLLINS CHILDRENS SERVICES COMPLEX,RECORDED,KIND,KINDERGARTEN,142.4768948,-38.3838904,106932,,,,,,,,,,,,,,,,,,,,,,,,,,,,,,,,,,,,,,,
VIC,WARRNAMBOOL CITY,119521,FLORENCE COLLINS CHILDRENS SERVICES COMPLEX,RECORDED,KIND,KINDERGARTEN,142.47915,-38.385286,119134,,,,,,,,,,,,,,,,,,,,,,,,,,,,,,,,,,,,,,,
VIC,WHITEHORSE CITY,116945,FLORENCE ROAD PRESCHOOL,RECORDED,KIND,KINDERGARTEN,145.102441,-37.826697,116700,,,,,,,,,,,,,,,,,,,,,,,,,,,,,,,,,,,,,,,
VIC,GREATER SHEPPARTON CITY,119522,FLORINA PRESCHOOL & DAY CARE,RECORDED,KIND,KINDERGARTEN,145.414243,-36.375329,119135,,,,,,,,,,,,,,,,,,,,,,,,,,,,,,,,,,,,,,,
VIC,MITCHELL SHIRE,119523,FLOWERDALE KINDERGARTEN,RECORDED,KIND,KINDERGARTEN,145.25545,-37.367,119136,,,,,,,,,,,,,,,,,,,,,,,,,,,,,,,,,,,,,,,
VIC,GANNAWARRA SHIRE,9245,FLOWERDAYS PUMP,REGISTERED,KIND,KINDERGARTEN,143.8759722,-35.4868056,2819,,,,,,,,,,,,,,,,,,,,,,,,,,,,,,,,,,,,,,,
VIC,BOROONDARA CITY,116947,FORDHAM AVENUE KINDERGARTEN,RECORDED,KIND,KINDERGARTEN,145.072753,-37.836511,116702,,,,,,,,,,,,,,,,,,,,,,,,,,,,,,,,,,,,,,,
VIC,BRIMBANK CITY,116948,FOREVER FRIENDS EARLY LEARNING CENTRE,RECORDED,KIND,KINDERGARTEN,144.774788,-37.703137,116703,,,,,,,,,,,,,,,,,,,,,,,,,,,,,,,,,,,,,,,
VIC,HUME CITY,116949,FOREVER FRIENDS SUNBURY,RECORDED,KIND,KINDERGARTEN,144.721406,-37.583779,116704,,,,,,,,,,,,,,,,,,,,,,,,,,,,,,,,,,,,,,,
VIC,COLAC OTWAY SHIRE,119524,FORREST PRESCHOOL,RECORDED,KIND,KINDERGARTEN,143.713959,-38.515302,119137,,,,,,,,,,,,,,,,,,,,,,,,,,,,,,,,,,,,,,,
VIC,SOUTH GIPPSLAND SHIRE,119525,FOSTER KINDERGARTEN,RECORDED,KIND,KINDERGARTEN,146.199537,-38.653301,119138,,,,,,,,,,,,,,,,,,,,,,,,,,,,,,,,,,,,,,,
